[
  {
    "id": 1,
    "name": "林美石磐步道",
    "manage": "羅東",
    "Place": "林美石磐步道0k前廣場",
    "county": "宜蘭縣",
    "twd97_X": 324164,
    "twd97_Y": 2746826,
    "WGS84_East_longitude": 121.7337,
    "WGS84_north_latitude": 24.8271,
    "CHT": "中華電信",
    "FET": "遠傳電信",
    "TWM": "台灣大哥大",
    "TSTAR": null,
    "APT": null
  },
  {
    "id": 2,
    "name": "林美石磐步道",
    "manage": "羅東",
    "Place": "林美石磐步道1.6k",
    "county": "宜蘭縣",
    "twd97_X": 324056,
    "twd97_Y": 2746907,
    "WGS84_East_longitude": 121.732631,
    "WGS84_north_latitude": 24.82783,
    "CHT": "中華電信",
    "FET": "遠傳電信",
    "TWM": "台灣大哥大",
    "TSTAR": "台灣之星",
    "APT": null
  },
  {
    "id": 3,
    "name": "礁溪跑馬古道",
    "manage": "羅東",
    "Place": "跑馬古道0k",
    "county": "新北市",
    "twd97_X": 328335,
    "twd97_Y": 2751059,
    "WGS84_East_longitude": 121.7752,
    "WGS84_north_latitude": 24.8651,
    "CHT": "中華電信",
    "FET": "遠傳電信",
    "TWM": "台灣大哥大",
    "TSTAR": "台灣之星",
    "APT": null
  },
  {
    "id": 4,
    "name": "礁溪跑馬古道",
    "manage": "羅東",
    "Place": "跑馬古道0.5k",
    "county": "宜蘭縣",
    "twd97_X": 328228,
    "twd97_Y": 2750732,
    "WGS84_East_longitude": 121.774121,
    "WGS84_north_latitude": 24.862156,
    "CHT": "中華電信",
    "FET": "遠傳電信",
    "TWM": "台灣大哥大",
    "TSTAR": "台灣之星",
    "APT": null
  },
  {
    "id": 5,
    "name": "礁溪跑馬古道",
    "manage": "羅東",
    "Place": "跑馬古道3.8k",
    "county": "宜蘭縣",
    "twd97_X": 328591,
    "twd97_Y": 2748756,
    "WGS84_East_longitude": 121.7776,
    "WGS84_north_latitude": 24.8443,
    "CHT": "中華電信",
    "FET": "遠傳電信",
    "TWM": "台灣大哥大",
    "TSTAR": "台灣之星",
    "APT": null
  },
  {
    "id": 6,
    "name": "礁溪跑馬古道",
    "manage": "羅東",
    "Place": "跑馬古道4.5k",
    "county": "宜蘭縣",
    "twd97_X": 328422,
    "twd97_Y": 2748212,
    "WGS84_East_longitude": 121.7759,
    "WGS84_north_latitude": 24.8394,
    "CHT": "中華電信",
    "FET": "遠傳電信",
    "TWM": "台灣大哥大",
    "TSTAR": "台灣之星",
    "APT": null
  },
  {
    "id": 7,
    "name": "礁溪跑馬古道",
    "manage": "羅東",
    "Place": "跑馬古道4.8k玉龍居",
    "county": "宜蘭縣",
    "twd97_X": 328059,
    "twd97_Y": 2748199,
    "WGS84_East_longitude": 121.7723,
    "WGS84_north_latitude": 24.8393,
    "CHT": "中華電信",
    "FET": "遠傳電信",
    "TWM": "台灣大哥大",
    "TSTAR": "台灣之星",
    "APT": null
  },
  {
    "id": 8,
    "name": "礁溪跑馬古道",
    "manage": "羅東",
    "Place": "跑馬古道5.0K南入口意象",
    "county": "宜蘭縣",
    "twd97_X": 328079,
    "twd97_Y": 2748089,
    "WGS84_East_longitude": 121.7725,
    "WGS84_north_latitude": 24.838302,
    "CHT": "中華電信",
    "FET": "遠傳電信",
    "TWM": null,
    "TSTAR": "台灣之星",
    "APT": null
  },
  {
    "id": 9,
    "name": "聖母登山步道",
    "manage": "羅東",
    "Place": "聖母登山步道1.6k",
    "county": "宜蘭縣",
    "twd97_X": 323844,
    "twd97_Y": 2749937,
    "WGS84_East_longitude": 121.7307,
    "WGS84_north_latitude": 24.8552,
    "CHT": "中華電信",
    "FET": "遠傳電信",
    "TWM": "台灣大哥大",
    "TSTAR": "台灣之星",
    "APT": null
  },
  {
    "id": 10,
    "name": "九寮溪步道",
    "manage": "羅東",
    "Place": "九寮溪自然步道入口管制亭",
    "county": "宜蘭縣",
    "twd97_X": 310659,
    "twd97_Y": 2729793,
    "WGS84_East_longitude": 121.599361,
    "WGS84_north_latitude": 24.673912,
    "CHT": "中華電信",
    "FET": "遠傳電信",
    "TWM": "台灣大哥大",
    "TSTAR": null,
    "APT": null
  },
  {
    "id": 11,
    "name": "九寮溪步道",
    "manage": "羅東",
    "Place": "九寮溪自然步道步道0K前涼亭",
    "county": "宜蘭縣",
    "twd97_X": 310167,
    "twd97_Y": 2729701,
    "WGS84_East_longitude": 121.5945,
    "WGS84_north_latitude": 24.6731,
    "CHT": "中華電信",
    "FET": "遠傳電信",
    "TWM": "台灣大哥大",
    "TSTAR": null,
    "APT": null
  },
  {
    "id": 12,
    "name": "拳頭姆自然步道",
    "manage": "羅東",
    "Place": "拳頭姆自然步道入口停車場",
    "county": "宜蘭縣",
    "twd97_X": 312240,
    "twd97_Y": 2727893,
    "WGS84_East_longitude": 121.6149,
    "WGS84_north_latitude": 24.6567,
    "CHT": "中華電信",
    "FET": "遠傳電信",
    "TWM": "台灣大哥大",
    "TSTAR": null,
    "APT": null
  },
  {
    "id": 13,
    "name": "拳頭姆自然步道",
    "manage": "羅東",
    "Place": "拳頭姆自然步道0.35k岔路",
    "county": "宜蘭縣",
    "twd97_X": 312087,
    "twd97_Y": 2728081,
    "WGS84_East_longitude": 121.6134,
    "WGS84_north_latitude": 24.6584,
    "CHT": "中華電信",
    "FET": "遠傳電信",
    "TWM": "台灣大哥大",
    "TSTAR": "台灣之星",
    "APT": null
  },
  {
    "id": 14,
    "name": "拳頭姆自然步道",
    "manage": "羅東",
    "Place": "拳頭姆自然步道0.6k",
    "county": "宜蘭縣",
    "twd97_X": 311956,
    "twd97_Y": 2728080,
    "WGS84_East_longitude": 121.6121,
    "WGS84_north_latitude": 24.6584,
    "CHT": "中華電信",
    "FET": "遠傳電信",
    "TWM": "台灣大哥大",
    "TSTAR": "台灣之星",
    "APT": null
  },
  {
    "id": 15,
    "name": "拳頭姆自然步道",
    "manage": "羅東",
    "Place": "拳頭姆自然步道1.27k平台",
    "county": "宜蘭縣",
    "twd97_X": 312037,
    "twd97_Y": 2727981,
    "WGS84_East_longitude": 121.6129,
    "WGS84_north_latitude": 24.6575,
    "CHT": "中華電信",
    "FET": "遠傳電信",
    "TWM": "台灣大哥大",
    "TSTAR": "台灣之星",
    "APT": null
  },
  {
    "id": 16,
    "name": "新寮瀑布步道",
    "manage": "羅東",
    "Place": "新寮瀑布步道0k",
    "county": "宜蘭縣",
    "twd97_X": 325640,
    "twd97_Y": 2722351,
    "WGS84_East_longitude": 121.746979,
    "WGS84_north_latitude": 24.606066,
    "CHT": "中華電信",
    "FET": "遠傳電信",
    "TWM": "台灣大哥大",
    "TSTAR": null,
    "APT": null
  },
  {
    "id": 17,
    "name": "新店獅頭山步道",
    "manage": "羅東",
    "Place": "新店獅頭山步道0k",
    "county": "新北市",
    "twd97_X": 304666,
    "twd97_Y": 2761744,
    "WGS84_East_longitude": 121.5414,
    "WGS84_north_latitude": 24.9626,
    "CHT": "中華電信",
    "FET": "遠傳電信",
    "TWM": "台灣大哥大",
    "TSTAR": null,
    "APT": null
  },
  {
    "id": 18,
    "name": "新店獅頭山步道",
    "manage": "羅東",
    "Place": "新店獅頭山步道往文中路",
    "county": "新北市",
    "twd97_X": 304727,
    "twd97_Y": 2761273,
    "WGS84_East_longitude": 121.54199,
    "WGS84_north_latitude": 24.958342,
    "CHT": "中華電信",
    "FET": "遠傳電信",
    "TWM": "台灣大哥大",
    "TSTAR": null,
    "APT": null
  },
  {
    "id": 19,
    "name": "新店獅頭山步道",
    "manage": "羅東",
    "Place": "新店獅頭山步道0.3K",
    "county": "新北市",
    "twd97_X": 304677,
    "twd97_Y": 2761512,
    "WGS84_East_longitude": 121.5415,
    "WGS84_north_latitude": 24.9605,
    "CHT": "中華電信",
    "FET": "遠傳電信",
    "TWM": "台灣大哥大",
    "TSTAR": null,
    "APT": null
  },
  {
    "id": 20,
    "name": "新店獅頭山步道",
    "manage": "羅東",
    "Place": "新店獅頭山步道0.4K",
    "county": "新北市",
    "twd97_X": 304647,
    "twd97_Y": 2761445,
    "WGS84_East_longitude": 121.5412,
    "WGS84_north_latitude": 24.9599,
    "CHT": "中華電信",
    "FET": "遠傳電信",
    "TWM": "台灣大哥大",
    "TSTAR": null,
    "APT": null
  },
  {
    "id": 21,
    "name": "新店獅頭山步道",
    "manage": "羅東",
    "Place": "新店獅頭山步道0.5k",
    "county": "新北市",
    "twd97_X": 304748,
    "twd97_Y": 2761445,
    "WGS84_East_longitude": 121.5422,
    "WGS84_north_latitude": 24.9599,
    "CHT": "中華電信",
    "FET": "遠傳電信",
    "TWM": "台灣大哥大",
    "TSTAR": null,
    "APT": null
  },
  {
    "id": 22,
    "name": "新店獅頭山步道",
    "manage": "羅東",
    "Place": "新店獅頭山步道0.6k",
    "county": "新北市",
    "twd97_X": 304809,
    "twd97_Y": 2761390,
    "WGS84_East_longitude": 121.5428,
    "WGS84_north_latitude": 24.9594,
    "CHT": "中華電信",
    "FET": "遠傳電信",
    "TWM": null,
    "TSTAR": null,
    "APT": null
  },
  {
    "id": 23,
    "name": "新店獅頭山步道",
    "manage": "羅東",
    "Place": "新店獅頭山步道0.7k",
    "county": "新北市",
    "twd97_X": 304849,
    "twd97_Y": 2761357,
    "WGS84_East_longitude": 121.5432,
    "WGS84_north_latitude": 24.9591,
    "CHT": "中華電信",
    "FET": "遠傳電信",
    "TWM": "台灣大哥大",
    "TSTAR": null,
    "APT": null
  },
  {
    "id": 24,
    "name": "新店獅頭山步道",
    "manage": "羅東",
    "Place": "新店獅頭山步道0.8k",
    "county": "新北市",
    "twd97_X": 304870,
    "twd97_Y": 2761291,
    "WGS84_East_longitude": 121.5434,
    "WGS84_north_latitude": 24.9585,
    "CHT": "中華電信",
    "FET": "遠傳電信",
    "TWM": "台灣大哥大",
    "TSTAR": null,
    "APT": null
  },
  {
    "id": 25,
    "name": "朝陽步道",
    "manage": "羅東",
    "Place": "朝陽步道0.2K",
    "county": "宜蘭縣",
    "twd97_X": 333019,
    "twd97_Y": 2706203,
    "WGS84_East_longitude": 121.8189,
    "WGS84_north_latitude": 24.4599,
    "CHT": "中華電信",
    "FET": "遠傳電信",
    "TWM": "台灣大哥大",
    "TSTAR": "台灣之星",
    "APT": null
  },
  {
    "id": 26,
    "name": "朝陽步道",
    "manage": "羅東",
    "Place": "朝陽步道0.9K",
    "county": "宜蘭縣",
    "twd97_X": 332870,
    "twd97_Y": 2705781,
    "WGS84_East_longitude": 121.8174,
    "WGS84_north_latitude": 24.4561,
    "CHT": "中華電信",
    "FET": "遠傳電信",
    "TWM": "台灣大哥大",
    "TSTAR": "台灣之星",
    "APT": null
  },
  {
    "id": 27,
    "name": "朝陽步道",
    "manage": "羅東",
    "Place": "朝陽步道1.7K",
    "county": "宜蘭縣",
    "twd97_X": 332211,
    "twd97_Y": 2705667,
    "WGS84_East_longitude": 121.8109,
    "WGS84_north_latitude": 24.4551,
    "CHT": "中華電信",
    "FET": "遠傳電信",
    "TWM": "台灣大哥大",
    "TSTAR": "台灣之星",
    "APT": null
  },
  {
    "id": 28,
    "name": "朝陽步道",
    "manage": "羅東",
    "Place": "朝陽步道2.2K",
    "county": "宜蘭縣",
    "twd97_X": 332067,
    "twd97_Y": 2706098,
    "WGS84_East_longitude": 121.8095,
    "WGS84_north_latitude": 24.459,
    "CHT": "中華電信",
    "FET": "遠傳電信",
    "TWM": "台灣大哥大",
    "TSTAR": "台灣之星",
    "APT": null
  },
  {
    "id": 29,
    "name": "朝陽步道",
    "manage": "羅東",
    "Place": "朝陽步道支線0.2K",
    "county": "宜蘭縣",
    "twd97_X": 332543,
    "twd97_Y": 2706058,
    "WGS84_East_longitude": 121.81419,
    "WGS84_north_latitude": 24.45862,
    "CHT": "中華電信",
    "FET": "遠傳電信",
    "TWM": "台灣大哥大",
    "TSTAR": null,
    "APT": null
  },
  {
    "id": 30,
    "name": "松羅湖山徑",
    "manage": "羅東",
    "Place": "松羅湖山徑舊廢棄登山口",
    "county": "宜蘭縣",
    "twd97_X": 308263,
    "twd97_Y": 2730047,
    "WGS84_East_longitude": 121.5757,
    "WGS84_north_latitude": 24.6763,
    "CHT": "中華電信",
    "FET": "遠傳電信",
    "TWM": null,
    "TSTAR": null,
    "APT": null
  },
  {
    "id": 31,
    "name": "松羅湖山徑",
    "manage": "羅東",
    "Place": "松羅湖山徑3.3k",
    "county": "宜蘭縣",
    "twd97_X": 305798,
    "twd97_Y": 2731510,
    "WGS84_East_longitude": 121.5514,
    "WGS84_north_latitude": 24.6896,
    "CHT": "中華電信",
    "FET": "遠傳電信",
    "TWM": null,
    "TSTAR": null,
    "APT": null
  },
  {
    "id": 32,
    "name": "鐵杉林自然步道",
    "manage": "羅東",
    "Place": "鐵杉林自然步道1.3k",
    "county": "宜蘭縣",
    "twd97_X": 303319,
    "twd97_Y": 2710146,
    "WGS84_East_longitude": 121.5261,
    "WGS84_north_latitude": 24.4968,
    "CHT": "中華電信",
    "FET": "遠傳電信",
    "TWM": "台灣大哥大",
    "TSTAR": null,
    "APT": null
  },
  {
    "id": 33,
    "name": "太加縱走",
    "manage": "羅東",
    "Place": "太加縱走山徑8.1k",
    "county": "宜蘭縣",
    "twd97_X": 302424,
    "twd97_Y": 2708337,
    "WGS84_East_longitude": 121.5172,
    "WGS84_north_latitude": 24.4805,
    "CHT": "中華電信",
    "FET": "遠傳電信",
    "TWM": null,
    "TSTAR": null,
    "APT": null
  },
  {
    "id": 34,
    "name": "太加縱走",
    "manage": "羅東",
    "Place": "太加縱走山徑0.9k",
    "county": "宜蘭縣",
    "twd97_X": 297548,
    "twd97_Y": 2708308,
    "WGS84_East_longitude": 121.4691,
    "WGS84_north_latitude": 24.4804,
    "CHT": "中華電信",
    "FET": "遠傳電信",
    "TWM": null,
    "TSTAR": null,
    "APT": null
  },
  {
    "id": 35,
    "name": "蘇花古道：大南澳越嶺段",
    "manage": "羅東",
    "Place": "蘇花古道大南澳越嶺段0K",
    "county": "宜蘭縣",
    "twd97_X": 334971,
    "twd97_Y": 2708640,
    "WGS84_East_longitude": 121.8383,
    "WGS84_north_latitude": 24.4818,
    "CHT": "中華電信",
    "FET": "遠傳電信",
    "TWM": "台灣大哥大",
    "TSTAR": "台灣之星",
    "APT": null
  },
  {
    "id": 36,
    "name": "蘇花古道：大南澳越嶺段",
    "manage": "羅東",
    "Place": "蘇花古道大南澳越嶺段1.2K",
    "county": "宜蘭縣",
    "twd97_X": 334286,
    "twd97_Y": 2708016,
    "WGS84_East_longitude": 121.8315,
    "WGS84_north_latitude": 24.4762,
    "CHT": "中華電信",
    "FET": "遠傳電信",
    "TWM": "台灣大哥大",
    "TSTAR": null,
    "APT": null
  },
  {
    "id": 37,
    "name": "蘇花古道：大南澳越嶺段",
    "manage": "羅東",
    "Place": "蘇花古道大南澳越嶺段2.0K",
    "county": "宜蘭縣",
    "twd97_X": 333974,
    "twd97_Y": 2707549,
    "WGS84_East_longitude": 121.8284,
    "WGS84_north_latitude": 24.472,
    "CHT": "中華電信",
    "FET": "遠傳電信",
    "TWM": "台灣大哥大",
    "TSTAR": "台灣之星",
    "APT": null
  },
  {
    "id": 38,
    "name": "蘇花古道：大南澳越嶺段",
    "manage": "羅東",
    "Place": "蘇花古道大南澳越嶺段2.6K",
    "county": "宜蘭縣",
    "twd97_X": 333560,
    "twd97_Y": 2707303,
    "WGS84_East_longitude": 121.8243,
    "WGS84_north_latitude": 24.4698,
    "CHT": "中華電信",
    "FET": "遠傳電信",
    "TWM": null,
    "TSTAR": null,
    "APT": null
  },
  {
    "id": 39,
    "name": "蘇花古道：大南澳越嶺段",
    "manage": "羅東",
    "Place": "蘇花古道大南澳越嶺段3.0K",
    "county": "宜蘭縣",
    "twd97_X": 333400,
    "twd97_Y": 2706969,
    "WGS84_East_longitude": 121.8227,
    "WGS84_north_latitude": 24.4668,
    "CHT": "中華電信",
    "FET": "遠傳電信",
    "TWM": "台灣大哥大",
    "TSTAR": "台灣之星",
    "APT": null
  },
  {
    "id": 40,
    "name": "蘇花古道：大南澳越嶺段",
    "manage": "羅東",
    "Place": "蘇花古道大南澳越嶺段3.4K",
    "county": "宜蘭縣",
    "twd97_X": 333096,
    "twd97_Y": 2706879,
    "WGS84_East_longitude": 121.8197,
    "WGS84_north_latitude": 24.466,
    "CHT": "中華電信",
    "FET": "遠傳電信",
    "TWM": "台灣大哥大",
    "TSTAR": "台灣之星",
    "APT": null
  },
  {
    "id": 41,
    "name": "蘇花古道：大南澳越嶺段",
    "manage": "羅東",
    "Place": "蘇花古道大南澳越嶺段4.1K",
    "county": "宜蘭縣",
    "twd97_X": 332703,
    "twd97_Y": 2706489,
    "WGS84_East_longitude": 121.8158,
    "WGS84_north_latitude": 24.4625,
    "CHT": "中華電信",
    "FET": "遠傳電信",
    "TWM": "台灣大哥大",
    "TSTAR": "台灣之星",
    "APT": null
  },
  {
    "id": 42,
    "name": "巴博庫魯山山徑",
    "manage": "羅東",
    "Place": "110林道柵欄口",
    "county": "宜蘭縣",
    "twd97_X": 297828,
    "twd97_Y": 2727316,
    "WGS84_East_longitude": 121.4725,
    "WGS84_north_latitude": 24.652,
    "CHT": "中華電信",
    "FET": "遠傳電信",
    "TWM": null,
    "TSTAR": null,
    "APT": null
  },
  {
    "id": 43,
    "name": "巴博庫魯山山徑",
    "manage": "羅東",
    "Place": "巴博庫魯山徑0.6k",
    "county": "宜蘭縣",
    "twd97_X": 298368,
    "twd97_Y": 2728150,
    "WGS84_East_longitude": 121.477868,
    "WGS84_north_latitude": 24.659517,
    "CHT": "中華電信",
    "FET": "遠傳電信",
    "TWM": "台灣大哥大",
    "TSTAR": null,
    "APT": null
  },
  {
    "id": 44,
    "name": "巴博庫魯山山徑",
    "manage": "羅東",
    "Place": "巴博庫魯山徑1.1k",
    "county": "宜蘭縣",
    "twd97_X": 298259,
    "twd97_Y": 2728591,
    "WGS84_East_longitude": 121.4768,
    "WGS84_north_latitude": 24.6635,
    "CHT": "中華電信",
    "FET": "遠傳電信",
    "TWM": "台灣大哥大",
    "TSTAR": null,
    "APT": null
  },
  {
    "id": 45,
    "name": "巴博庫魯山山徑",
    "manage": "羅東",
    "Place": "巴博庫魯山徑1.4k",
    "county": "宜蘭縣",
    "twd97_X": 298207,
    "twd97_Y": 2728879,
    "WGS84_East_longitude": 121.4763,
    "WGS84_north_latitude": 24.6661,
    "CHT": "中華電信",
    "FET": "遠傳電信",
    "TWM": "台灣大哥大",
    "TSTAR": null,
    "APT": null
  },
  {
    "id": 46,
    "name": "巴博庫魯山山徑",
    "manage": "羅東",
    "Place": "巴博庫魯山徑2.5k",
    "county": "宜蘭縣",
    "twd97_X": 298555,
    "twd97_Y": 2729731,
    "WGS84_East_longitude": 121.47977,
    "WGS84_north_latitude": 24.673784,
    "CHT": "中華電信",
    "FET": "遠傳電信",
    "TWM": "台灣大哥大",
    "TSTAR": null,
    "APT": null
  },
  {
    "id": 47,
    "name": "翠峰湖環山步道",
    "manage": "羅東",
    "Place": "翠峰湖環山步道3.9k",
    "county": "宜蘭縣",
    "twd97_X": 311676,
    "twd97_Y": 2711732,
    "WGS84_East_longitude": 121.60862,
    "WGS84_north_latitude": 24.510815,
    "CHT": "中華電信",
    "FET": null,
    "TWM": null,
    "TSTAR": null,
    "APT": null
  },
  {
    "id": 48,
    "name": "翠峰湖環山步道",
    "manage": "羅東",
    "Place": "翠峰湖環山步道3.6k平台",
    "county": "宜蘭縣",
    "twd97_X": 311745,
    "twd97_Y": 2711972,
    "WGS84_East_longitude": 121.60931,
    "WGS84_north_latitude": 24.512974,
    "CHT": "中華電信",
    "FET": null,
    "TWM": null,
    "TSTAR": null,
    "APT": null
  },
  {
    "id": 49,
    "name": "鐵杉林自然步道",
    "manage": "羅東",
    "Place": "鐵杉林自然步道0k",
    "county": "宜蘭縣",
    "twd97_X": 304055,
    "twd97_Y": 2709988,
    "WGS84_East_longitude": 121.533358,
    "WGS84_north_latitude": 24.495354,
    "CHT": "中華電信",
    "FET": null,
    "TWM": null,
    "TSTAR": null,
    "APT": null
  },
  {
    "id": 50,
    "name": "鐵杉林自然步道",
    "manage": "羅東",
    "Place": "鐵杉林自然步道0.5k",
    "county": "宜蘭縣",
    "twd97_X": 303737,
    "twd97_Y": 2710074,
    "WGS84_East_longitude": 121.53022,
    "WGS84_north_latitude": 24.496137,
    "CHT": "中華電信",
    "FET": null,
    "TWM": null,
    "TSTAR": null,
    "APT": null
  },
  {
    "id": 51,
    "name": "鐵杉林自然步道",
    "manage": "羅東",
    "Place": "鐵杉林自然步道0.8k",
    "county": "宜蘭縣",
    "twd97_X": 303627,
    "twd97_Y": 2709950,
    "WGS84_East_longitude": 121.52913,
    "WGS84_north_latitude": 24.495023,
    "CHT": "中華電信",
    "FET": null,
    "TWM": null,
    "TSTAR": null,
    "APT": null
  },
  {
    "id": 52,
    "name": "鳩之澤自然步道",
    "manage": "羅東",
    "Place": "鳩之澤自然步道0k",
    "county": "宜蘭縣",
    "twd97_X": 301398,
    "twd97_Y": 2715664,
    "WGS84_East_longitude": 121.50734,
    "WGS84_north_latitude": 24.54669,
    "CHT": "中華電信",
    "FET": null,
    "TWM": "台灣大哥大",
    "TSTAR": "台灣之星",
    "APT": null
  },
  {
    "id": 53,
    "name": "鳩之澤自然步道",
    "manage": "羅東",
    "Place": "鳩之澤自然步道0.4k",
    "county": "宜蘭縣",
    "twd97_X": 301297,
    "twd97_Y": 2715780,
    "WGS84_East_longitude": 121.50635,
    "WGS84_north_latitude": 24.547737,
    "CHT": "中華電信",
    "FET": null,
    "TWM": "台灣大哥大",
    "TSTAR": "台灣之星",
    "APT": null
  },
  {
    "id": 54,
    "name": "鳩之澤自然步道",
    "manage": "羅東",
    "Place": "鳩之澤自然步道0.7k",
    "county": "宜蘭縣",
    "twd97_X": 301151,
    "twd97_Y": 2715916,
    "WGS84_East_longitude": 121.504917,
    "WGS84_north_latitude": 24.54897,
    "CHT": "中華電信",
    "FET": null,
    "TWM": "台灣大哥大",
    "TSTAR": "台灣之星",
    "APT": null
  },
  {
    "id": 55,
    "name": "檜木原始林步道",
    "manage": "羅東",
    "Place": "檜木原始林步道0k",
    "county": "宜蘭縣",
    "twd97_X": 304216,
    "twd97_Y": 2709827,
    "WGS84_East_longitude": 121.53494,
    "WGS84_north_latitude": 24.493889,
    "CHT": "中華電信",
    "FET": null,
    "TWM": "台灣大哥大",
    "TSTAR": null,
    "APT": null
  },
  {
    "id": 56,
    "name": "檜木原始林步道",
    "manage": "羅東",
    "Place": "檜木原始林步道0.05k岔路",
    "county": "宜蘭縣",
    "twd97_X": 304225,
    "twd97_Y": 2709870,
    "WGS84_East_longitude": 121.53503,
    "WGS84_north_latitude": 24.494276,
    "CHT": "中華電信",
    "FET": null,
    "TWM": "台灣大哥大",
    "TSTAR": "台灣之星",
    "APT": null
  },
  {
    "id": 57,
    "name": "檜木原始林步道",
    "manage": "羅東",
    "Place": "檜木原始林步道0.35k",
    "county": "宜蘭縣",
    "twd97_X": 304137,
    "twd97_Y": 2709932,
    "WGS84_East_longitude": 121.53416,
    "WGS84_north_latitude": 24.494845,
    "CHT": "中華電信",
    "FET": null,
    "TWM": "台灣大哥大",
    "TSTAR": "台灣之星",
    "APT": null
  },
  {
    "id": 58,
    "name": "見晴懷古步道",
    "manage": "羅東",
    "Place": "見晴懷古步道0k",
    "county": "宜蘭縣",
    "twd97_X": 303275,
    "twd97_Y": 2711074,
    "WGS84_East_longitude": 121.5257,
    "WGS84_north_latitude": 24.505188,
    "CHT": "中華電信",
    "FET": null,
    "TWM": "台灣大哥大",
    "TSTAR": null,
    "APT": null
  },
  {
    "id": 59,
    "name": "見晴懷古步道",
    "manage": "羅東",
    "Place": "見晴懷古步道0.5k",
    "county": "宜蘭縣",
    "twd97_X": 303217,
    "twd97_Y": 2710569,
    "WGS84_East_longitude": 121.52511,
    "WGS84_north_latitude": 24.500625,
    "CHT": "中華電信",
    "FET": null,
    "TWM": "台灣大哥大",
    "TSTAR": null,
    "APT": null
  },
  {
    "id": 60,
    "name": "台灣山毛櫸步道",
    "manage": "羅東",
    "Place": "台灣山毛櫸步道0k",
    "county": "宜蘭縣",
    "twd97_X": 311831,
    "twd97_Y": 2711560,
    "WGS84_East_longitude": 121.61014,
    "WGS84_north_latitude": 24.509255,
    "CHT": "中華電信",
    "FET": null,
    "TWM": null,
    "TSTAR": null,
    "APT": null
  },
  {
    "id": 61,
    "name": "台灣山毛櫸步道",
    "manage": "羅東",
    "Place": "台灣山毛櫸步道0.5k",
    "county": "宜蘭縣",
    "twd97_X": 312020,
    "twd97_Y": 2711376,
    "WGS84_East_longitude": 121.612,
    "WGS84_north_latitude": 24.507581,
    "CHT": "中華電信",
    "FET": null,
    "TWM": null,
    "TSTAR": null,
    "APT": null
  },
  {
    "id": 62,
    "name": "台灣山毛櫸步道",
    "manage": "羅東",
    "Place": "台灣山毛櫸步道1.0k",
    "county": "宜蘭縣",
    "twd97_X": 312277,
    "twd97_Y": 2711148,
    "WGS84_East_longitude": 121.61453,
    "WGS84_north_latitude": 24.505517,
    "CHT": "中華電信",
    "FET": null,
    "TWM": null,
    "TSTAR": null,
    "APT": null
  },
  {
    "id": 63,
    "name": "台灣山毛櫸步道",
    "manage": "羅東",
    "Place": "台灣山毛櫸步道2.0k",
    "county": "宜蘭縣",
    "twd97_X": 312978,
    "twd97_Y": 2711038,
    "WGS84_East_longitude": 121.62144,
    "WGS84_north_latitude": 24.504499,
    "CHT": "中華電信",
    "FET": null,
    "TWM": null,
    "TSTAR": null,
    "APT": null
  },
  {
    "id": 64,
    "name": "望洋山步道",
    "manage": "羅東",
    "Place": "望洋山步道0k",
    "county": "宜蘭縣",
    "twd97_X": 311723,
    "twd97_Y": 2711670,
    "WGS84_East_longitude": 121.60908,
    "WGS84_north_latitude": 24.510248,
    "CHT": "中華電信",
    "FET": null,
    "TWM": null,
    "TSTAR": null,
    "APT": null
  },
  {
    "id": 65,
    "name": "新寮瀑布步道",
    "manage": "羅東",
    "Place": "新寮瀑布步道0.6k",
    "county": "宜蘭縣",
    "twd97_X": 325288,
    "twd97_Y": 2722047,
    "WGS84_East_longitude": 121.74349,
    "WGS84_north_latitude": 24.603337,
    "CHT": "中華電信",
    "FET": null,
    "TWM": null,
    "TSTAR": null,
    "APT": null
  },
  {
    "id": 66,
    "name": "新寮瀑布步道",
    "manage": "羅東",
    "Place": "新寮瀑布步道0.8k",
    "county": "宜蘭縣",
    "twd97_X": 325460,
    "twd97_Y": 2721936,
    "WGS84_East_longitude": 121.74518,
    "WGS84_north_latitude": 24.602327,
    "CHT": "中華電信",
    "FET": null,
    "TWM": null,
    "TSTAR": "台灣之星",
    "APT": null
  },
  {
    "id": 67,
    "name": "新寮瀑布步道",
    "manage": "羅東",
    "Place": "新寮瀑布步道0.9k",
    "county": "宜蘭縣",
    "twd97_X": 325436,
    "twd97_Y": 2721843,
    "WGS84_East_longitude": 121.74494,
    "WGS84_north_latitude": 24.60149,
    "CHT": "中華電信",
    "FET": null,
    "TWM": null,
    "TSTAR": null,
    "APT": null
  },
  {
    "id": 68,
    "name": "阿玉山山徑",
    "manage": "羅東",
    "Place": "阿玉山山徑0.2k",
    "county": "宜蘭縣",
    "twd97_X": 312041,
    "twd97_Y": 2740846,
    "WGS84_East_longitude": 121.61351,
    "WGS84_north_latitude": 24.773648,
    "CHT": "中華電信",
    "FET": null,
    "TWM": "台灣大哥大",
    "TSTAR": null,
    "APT": null
  },
  {
    "id": 69,
    "name": "阿玉山山徑",
    "manage": "羅東",
    "Place": "阿玉山山徑0.45k",
    "county": "宜蘭縣",
    "twd97_X": 311808,
    "twd97_Y": 2740829,
    "WGS84_East_longitude": 121.6112,
    "WGS84_north_latitude": 24.7735,
    "CHT": "中華電信",
    "FET": "遠傳電信",
    "TWM": "台灣大哥大",
    "TSTAR": null,
    "APT": null
  },
  {
    "id": 70,
    "name": "阿玉山山徑",
    "manage": "羅東",
    "Place": "阿玉山山徑0k",
    "county": "宜蘭縣",
    "twd97_X": 312182,
    "twd97_Y": 2740808,
    "WGS84_East_longitude": 121.6149,
    "WGS84_north_latitude": 24.7733,
    "CHT": "中華電信",
    "FET": "遠傳電信",
    "TWM": "台灣大哥大",
    "TSTAR": null,
    "APT": null
  },
  {
    "id": 71,
    "name": "阿玉山山徑",
    "manage": "羅東",
    "Place": "阿玉山山徑1.5k",
    "county": "宜蘭縣",
    "twd97_X": 311472,
    "twd97_Y": 2741601,
    "WGS84_East_longitude": 121.60791,
    "WGS84_north_latitude": 24.780489,
    "CHT": "中華電信",
    "FET": null,
    "TWM": "台灣大哥大",
    "TSTAR": null,
    "APT": null
  },
  {
    "id": 72,
    "name": "巴博庫魯山山徑",
    "manage": "羅東",
    "Place": "110林道接巴博庫魯第一登山口",
    "county": "宜蘭縣",
    "twd97_X": 298268,
    "twd97_Y": 2727607,
    "WGS84_East_longitude": 121.47686,
    "WGS84_north_latitude": 24.654616,
    "CHT": "中華電信",
    "FET": null,
    "TWM": "台灣大哥大",
    "TSTAR": null,
    "APT": null
  },
  {
    "id": 73,
    "name": "巴博庫魯山山徑",
    "manage": "羅東",
    "Place": "巴博庫魯山徑0.5k",
    "county": "宜蘭縣",
    "twd97_X": 298393,
    "twd97_Y": 2728050,
    "WGS84_East_longitude": 121.47811,
    "WGS84_north_latitude": 24.658617,
    "CHT": "中華電信",
    "FET": null,
    "TWM": null,
    "TSTAR": null,
    "APT": null
  },
  {
    "id": 74,
    "name": "巴博庫魯山山徑",
    "manage": "羅東",
    "Place": "巴博庫魯山徑1.2k",
    "county": "宜蘭縣",
    "twd97_X": 298233,
    "twd97_Y": 2728674,
    "WGS84_East_longitude": 121.47655,
    "WGS84_north_latitude": 24.664253,
    "CHT": "中華電信",
    "FET": null,
    "TWM": null,
    "TSTAR": null,
    "APT": null
  },
  {
    "id": 75,
    "name": "巴博庫魯山山徑",
    "manage": "羅東",
    "Place": "巴博庫魯山徑1.6k",
    "county": "宜蘭縣",
    "twd97_X": 298209,
    "twd97_Y": 2729048,
    "WGS84_East_longitude": 121.47632,
    "WGS84_north_latitude": 24.667633,
    "CHT": "中華電信",
    "FET": null,
    "TWM": null,
    "TSTAR": null,
    "APT": null
  },
  {
    "id": 76,
    "name": "巴博庫魯山山徑",
    "manage": "羅東",
    "Place": "巴博庫魯山徑4.1k",
    "county": "宜蘭縣",
    "twd97_X": 299231,
    "twd97_Y": 2728771,
    "WGS84_East_longitude": 121.48641,
    "WGS84_north_latitude": 24.665093,
    "CHT": "中華電信",
    "FET": null,
    "TWM": null,
    "TSTAR": null,
    "APT": null
  },
  {
    "id": 77,
    "name": "巴博庫魯山山徑",
    "manage": "羅東",
    "Place": "巴博庫魯山徑4.5k",
    "county": "宜蘭縣",
    "twd97_X": 299254,
    "twd97_Y": 2728404,
    "WGS84_East_longitude": 121.48663,
    "WGS84_north_latitude": 24.661779,
    "CHT": "中華電信",
    "FET": null,
    "TWM": "台灣大哥大",
    "TSTAR": null,
    "APT": null
  },
  {
    "id": 78,
    "name": "巴博庫魯山山徑",
    "manage": "羅東",
    "Place": "110林道接巴博庫魯第一登山口往前200m",
    "county": "宜蘭縣",
    "twd97_X": 298475,
    "twd97_Y": 2727562,
    "WGS84_East_longitude": 121.4789,
    "WGS84_north_latitude": 24.654207,
    "CHT": "中華電信",
    "FET": null,
    "TWM": null,
    "TSTAR": null,
    "APT": null
  },
  {
    "id": 79,
    "name": "巴博庫魯山山徑",
    "manage": "羅東",
    "Place": "110林道接巴博庫魯第二登山口",
    "county": "宜蘭縣",
    "twd97_X": 299072,
    "twd97_Y": 2728292,
    "WGS84_East_longitude": 121.48482,
    "WGS84_north_latitude": 24.66078,
    "CHT": "中華電信",
    "FET": null,
    "TWM": "台灣大哥大",
    "TSTAR": null,
    "APT": null
  },
  {
    "id": 80,
    "name": "新店獅頭山步道",
    "manage": "羅東",
    "Place": "新店獅頭山步道0.2k",
    "county": "新北市",
    "twd97_X": 304727,
    "twd97_Y": 2761622,
    "WGS84_East_longitude": 121.542,
    "WGS84_north_latitude": 24.9615,
    "CHT": "中華電信",
    "FET": null,
    "TWM": null,
    "TSTAR": null,
    "APT": null
  },
  {
    "id": 81,
    "name": "新店獅頭山步道",
    "manage": "羅東",
    "Place": "新店獅頭山步道0.75k文中路支線",
    "county": "新北市",
    "twd97_X": 304851,
    "twd97_Y": 2761307,
    "WGS84_East_longitude": 121.54322,
    "WGS84_north_latitude": 24.958643,
    "CHT": "中華電信",
    "FET": null,
    "TWM": "台灣大哥大",
    "TSTAR": null,
    "APT": null
  },
  {
    "id": 82,
    "name": "新店獅頭山步道",
    "manage": "羅東",
    "Place": "新店獅頭山步道忘憂亭前100m",
    "county": "新北市",
    "twd97_X": 304978,
    "twd97_Y": 2761141,
    "WGS84_East_longitude": 121.54447,
    "WGS84_north_latitude": 24.957144,
    "CHT": "中華電信",
    "FET": null,
    "TWM": "台灣大哥大",
    "TSTAR": null,
    "APT": null
  },
  {
    "id": 83,
    "name": "新店獅頭山步道",
    "manage": "羅東",
    "Place": "新店獅頭山步道長壽亭",
    "county": "新北市",
    "twd97_X": 305051,
    "twd97_Y": 2761053,
    "WGS84_East_longitude": 121.54519,
    "WGS84_north_latitude": 24.956344,
    "CHT": "中華電信",
    "FET": null,
    "TWM": "台灣大哥大",
    "TSTAR": null,
    "APT": null
  },
  {
    "id": 84,
    "name": "林美石磐步道",
    "manage": "羅東",
    "Place": "林美石磐步道0k管制亭",
    "county": "宜蘭縣",
    "twd97_X": 324154,
    "twd97_Y": 2746837,
    "WGS84_East_longitude": 121.7336,
    "WGS84_north_latitude": 24.8272,
    "CHT": "中華電信",
    "FET": null,
    "TWM": "台灣大哥大",
    "TSTAR": "台灣之星",
    "APT": null
  },
  {
    "id": 85,
    "name": "阿玉山山徑",
    "manage": "羅東",
    "Place": "阿玉山山徑2.1k",
    "county": "宜蘭縣",
    "twd97_X": 311377,
    "twd97_Y": 2742145,
    "WGS84_East_longitude": 121.607,
    "WGS84_north_latitude": 24.7854,
    "CHT": "中華電信",
    "FET": "遠傳電信",
    "TWM": "台灣大哥大",
    "TSTAR": null,
    "APT": null
  },
  {
    "id": 86,
    "name": "阿玉山山徑",
    "manage": "羅東",
    "Place": "阿玉山山徑2.6k",
    "county": "宜蘭縣",
    "twd97_X": 311267,
    "twd97_Y": 2742579,
    "WGS84_East_longitude": 121.605931,
    "WGS84_north_latitude": 24.789327,
    "CHT": "中華電信",
    "FET": "遠傳電信",
    "TWM": "台灣大哥大",
    "TSTAR": null,
    "APT": null
  },
  {
    "id": 87,
    "name": "阿玉山山徑",
    "manage": "羅東",
    "Place": "阿玉山山徑3.0k",
    "county": "新北市",
    "twd97_X": 310953,
    "twd97_Y": 2742594,
    "WGS84_East_longitude": 121.60282,
    "WGS84_north_latitude": 24.789476,
    "CHT": "中華電信",
    "FET": null,
    "TWM": "台灣大哥大",
    "TSTAR": null,
    "APT": null
  },
  {
    "id": 88,
    "name": "聖母登山步道",
    "manage": "羅東",
    "Place": "聖母登山步道1.6k末聖母峰平台",
    "county": "新北市",
    "twd97_X": 323761,
    "twd97_Y": 2749925,
    "WGS84_East_longitude": 121.729874,
    "WGS84_north_latitude": 24.85509,
    "CHT": "中華電信",
    "FET": null,
    "TWM": "台灣大哥大",
    "TSTAR": null,
    "APT": null
  },
  {
    "id": 89,
    "name": "聖母登山步道",
    "manage": "羅東",
    "Place": "聖母登山步道1.0k",
    "county": "宜蘭縣",
    "twd97_X": 324089,
    "twd97_Y": 2749569,
    "WGS84_East_longitude": 121.733099,
    "WGS84_north_latitude": 24.851863,
    "CHT": "中華電信",
    "FET": null,
    "TWM": "台灣大哥大",
    "TSTAR": "台灣之星",
    "APT": null
  },
  {
    "id": 90,
    "name": "聖母登山步道",
    "manage": "羅東",
    "Place": "聖母登山步道0.6k",
    "county": "宜蘭縣",
    "twd97_X": 324177,
    "twd97_Y": 2749368,
    "WGS84_East_longitude": 121.733961,
    "WGS84_north_latitude": 24.850045,
    "CHT": "中華電信",
    "FET": null,
    "TWM": "台灣大哥大",
    "TSTAR": "台灣之星",
    "APT": null
  },
  {
    "id": 91,
    "name": "聖母登山步道",
    "manage": "羅東",
    "Place": "聖母登山步道聯外產業道路1.9K桂林嶺休息站",
    "county": "宜蘭縣",
    "twd97_X": 324951,
    "twd97_Y": 2747412,
    "WGS84_East_longitude": 121.741518,
    "WGS84_north_latitude": 24.832352,
    "CHT": "中華電信",
    "FET": null,
    "TWM": null,
    "TSTAR": null,
    "APT": null
  },
  {
    "id": 92,
    "name": "見晴懷古步道",
    "manage": "羅東",
    "Place": "見晴懷古步道0.9k",
    "county": "宜蘭縣",
    "twd97_X": 303001,
    "twd97_Y": 2710362,
    "WGS84_East_longitude": 121.52297,
    "WGS84_north_latitude": 24.498769,
    "CHT": "中華電信",
    "FET": null,
    "TWM": "台灣大哥大",
    "TSTAR": null,
    "APT": null
  },
  {
    "id": 93,
    "name": "松羅步道",
    "manage": "羅東",
    "Place": "松羅步道0.5k",
    "county": "宜蘭縣",
    "twd97_X": 306669,
    "twd97_Y": 2729070,
    "WGS84_East_longitude": 121.559905,
    "WGS84_north_latitude": 24.667535,
    "CHT": "中華電信",
    "FET": null,
    "TWM": null,
    "TSTAR": null,
    "APT": null
  },
  {
    "id": 94,
    "name": "松羅步道",
    "manage": "羅東",
    "Place": "松羅步道0k",
    "county": "宜蘭縣",
    "twd97_X": 307081,
    "twd97_Y": 2729223,
    "WGS84_East_longitude": 121.563982,
    "WGS84_north_latitude": 24.668902,
    "CHT": "中華電信",
    "FET": null,
    "TWM": null,
    "TSTAR": null,
    "APT": null
  },
  {
    "id": 95,
    "name": "林美石磐步道",
    "manage": "羅東",
    "Place": "林美石磐步道1.0k",
    "county": "宜蘭縣",
    "twd97_X": 323649,
    "twd97_Y": 2746866,
    "WGS84_East_longitude": 121.728608,
    "WGS84_north_latitude": 24.827482,
    "CHT": "中華電信",
    "FET": "遠傳電信",
    "TWM": "台灣大哥大",
    "TSTAR": "台灣之星",
    "APT": null
  },
  {
    "id": 96,
    "name": "林美石磐步道",
    "manage": "羅東",
    "Place": "林美石磐步道0.4k",
    "county": "宜蘭縣",
    "twd97_X": 323798,
    "twd97_Y": 2746961,
    "WGS84_East_longitude": 121.730085,
    "WGS84_north_latitude": 24.828335,
    "CHT": "中華電信",
    "FET": "遠傳電信",
    "TWM": "台灣大哥大",
    "TSTAR": "台灣之星",
    "APT": null
  },
  {
    "id": 97,
    "name": "林美石磐步道",
    "manage": "羅東",
    "Place": "林美石磐步道1.5k",
    "county": "宜蘭縣",
    "twd97_X": 323983,
    "twd97_Y": 2746885,
    "WGS84_East_longitude": 121.731906,
    "WGS84_north_latitude": 24.827636,
    "CHT": "中華電信",
    "FET": null,
    "TWM": "台灣大哥大",
    "TSTAR": "台灣之星",
    "APT": null
  },
  {
    "id": 98,
    "name": "金瓜寮魚蕨步道",
    "manage": "羅東",
    "Place": "金瓜寮魚蕨步道0.25K",
    "county": "新北市",
    "twd97_X": 318297,
    "twd97_Y": 2755062,
    "WGS84_East_longitude": 121.676063,
    "WGS84_north_latitude": 24.901723,
    "CHT": "中華電信",
    "FET": null,
    "TWM": null,
    "TSTAR": null,
    "APT": null
  },
  {
    "id": 99,
    "name": "金瓜寮魚蕨步道",
    "manage": "羅東",
    "Place": "金瓜寮魚蕨步道0.65K跨橋前",
    "county": "新北市",
    "twd97_X": 318127,
    "twd97_Y": 2754922,
    "WGS84_East_longitude": 121.674372,
    "WGS84_north_latitude": 24.900464,
    "CHT": "中華電信",
    "FET": null,
    "TWM": null,
    "TSTAR": null,
    "APT": null
  },
  {
    "id": 100,
    "name": "金瓜寮魚蕨步道",
    "manage": "羅東",
    "Place": "金瓜寮魚蕨步道0.8景觀平台前",
    "county": "新北市",
    "twd97_X": 318170,
    "twd97_Y": 2754805,
    "WGS84_East_longitude": 121.674797,
    "WGS84_north_latitude": 24.899412,
    "CHT": "中華電信",
    "FET": null,
    "TWM": "台灣大哥大",
    "TSTAR": null,
    "APT": null
  },
  {
    "id": 101,
    "name": "金瓜寮魚蕨步道",
    "manage": "羅東",
    "Place": "金瓜寮魚蕨步道0K",
    "county": "新北市",
    "twd97_X": 318107,
    "twd97_Y": 2755236,
    "WGS84_East_longitude": 121.674195,
    "WGS84_north_latitude": 24.903302,
    "CHT": "中華電信",
    "FET": null,
    "TWM": null,
    "TSTAR": null,
    "APT": null
  },
  {
    "id": 102,
    "name": "金瓜寮魚蕨步道",
    "manage": "羅東",
    "Place": "金瓜寮魚蕨步道1.0K",
    "county": "新北市",
    "twd97_X": 318016,
    "twd97_Y": 2754843,
    "WGS84_East_longitude": 121.673268,
    "WGS84_north_latitude": 24.899761,
    "CHT": "中華電信",
    "FET": null,
    "TWM": null,
    "TSTAR": null,
    "APT": null
  },
  {
    "id": 103,
    "name": "阿玉山山徑",
    "manage": "羅東",
    "Place": "阿玉林道入口",
    "county": "宜蘭縣",
    "twd97_X": 312049,
    "twd97_Y": 2739110,
    "WGS84_East_longitude": 121.61351,
    "WGS84_north_latitude": 24.757975,
    "CHT": "中華電信",
    "FET": null,
    "TWM": null,
    "TSTAR": null,
    "APT": null
  },
  {
    "id": 104,
    "name": "茂興懷舊步道",
    "manage": "羅東",
    "Place": "茂興懷舊步道0.05k",
    "county": "宜蘭縣",
    "twd97_X": 304369,
    "twd97_Y": 2708146,
    "WGS84_East_longitude": 121.536382,
    "WGS84_north_latitude": 24.478712,
    "CHT": "中華電信",
    "FET": null,
    "TWM": "台灣大哥大",
    "TSTAR": null,
    "APT": null
  },
  {
    "id": 105,
    "name": "茂興懷舊步道",
    "manage": "羅東",
    "Place": "茂興懷舊步道0.25k平台",
    "county": "宜蘭縣",
    "twd97_X": 304246,
    "twd97_Y": 2708000,
    "WGS84_East_longitude": 121.535165,
    "WGS84_north_latitude": 24.477395,
    "CHT": "中華電信",
    "FET": "遠傳電信",
    "TWM": "台灣大哥大",
    "TSTAR": null,
    "APT": null
  },
  {
    "id": 106,
    "name": "茂興懷舊步道",
    "manage": "羅東",
    "Place": "茂興懷舊步道0k",
    "county": "宜蘭縣",
    "twd97_X": 304394,
    "twd97_Y": 2708193,
    "WGS84_East_longitude": 121.536633,
    "WGS84_north_latitude": 24.479131,
    "CHT": "中華電信",
    "FET": null,
    "TWM": "台灣大哥大",
    "TSTAR": null,
    "APT": null
  },
  {
    "id": 107,
    "name": "朝陽步道",
    "manage": "羅東",
    "Place": "朝陽步道1.4K",
    "county": "宜蘭縣",
    "twd97_X": 332453,
    "twd97_Y": 2705653,
    "WGS84_East_longitude": 121.813284,
    "WGS84_north_latitude": 24.454968,
    "CHT": "中華電信",
    "FET": null,
    "TWM": "台灣大哥大",
    "TSTAR": null,
    "APT": null
  },
  {
    "id": 108,
    "name": "朝陽步道",
    "manage": "羅東",
    "Place": "朝陽步道支線0K",
    "county": "宜蘭縣",
    "twd97_X": 332634,
    "twd97_Y": 2706256,
    "WGS84_East_longitude": 121.8151,
    "WGS84_north_latitude": 24.4604,
    "CHT": "中華電信",
    "FET": "遠傳電信",
    "TWM": "台灣大哥大",
    "TSTAR": "台灣之星",
    "APT": null
  },
  {
    "id": 109,
    "name": "朝陽步道",
    "manage": "羅東",
    "Place": "朝陽步道1.0K",
    "county": "宜蘭縣",
    "twd97_X": 332798,
    "twd97_Y": 2705700,
    "WGS84_East_longitude": 121.81669,
    "WGS84_north_latitude": 24.455373,
    "CHT": "中華電信",
    "FET": null,
    "TWM": "台灣大哥大",
    "TSTAR": null,
    "APT": null
  },
  {
    "id": 110,
    "name": "朝陽步道",
    "manage": "羅東",
    "Place": "朝陽步道0.5K",
    "county": "宜蘭縣",
    "twd97_X": 333013,
    "twd97_Y": 2705957,
    "WGS84_East_longitude": 121.818826,
    "WGS84_north_latitude": 24.457678,
    "CHT": "中華電信",
    "FET": null,
    "TWM": "台灣大哥大",
    "TSTAR": null,
    "APT": null
  },
  {
    "id": 111,
    "name": "朝陽步道",
    "manage": "羅東",
    "Place": "朝陽步道0K",
    "county": "宜蘭縣",
    "twd97_X": 333049,
    "twd97_Y": 2706336,
    "WGS84_East_longitude": 121.8192,
    "WGS84_north_latitude": 24.4611,
    "CHT": "中華電信",
    "FET": "遠傳電信",
    "TWM": "台灣大哥大",
    "TSTAR": "台灣之星",
    "APT": null
  },
  {
    "id": 112,
    "name": "鳩之澤自然步道",
    "manage": "羅東",
    "Place": "鳩之澤自然步道0.55k平台",
    "county": "宜蘭縣",
    "twd97_X": 301277,
    "twd97_Y": 2715881,
    "WGS84_East_longitude": 121.50616,
    "WGS84_north_latitude": 24.548649,
    "CHT": "中華電信",
    "FET": null,
    "TWM": "台灣大哥大",
    "TSTAR": "台灣之星",
    "APT": null
  },
  {
    "id": 113,
    "name": "礁溪跑馬古道",
    "manage": "羅東",
    "Place": "跑馬古道2.6k",
    "county": "宜蘭縣",
    "twd97_X": 328253,
    "twd97_Y": 2749574,
    "WGS84_East_longitude": 121.7743,
    "WGS84_north_latitude": 24.851703,
    "CHT": "中華電信",
    "FET": "遠傳電信",
    "TWM": "台灣大哥大",
    "TSTAR": "台灣之星",
    "APT": null
  },
  {
    "id": 114,
    "name": "礁溪跑馬古道",
    "manage": "羅東",
    "Place": "跑馬古道3.0k",
    "county": "宜蘭縣",
    "twd97_X": 328309,
    "twd97_Y": 2749263,
    "WGS84_East_longitude": 121.774833,
    "WGS84_north_latitude": 24.84889,
    "CHT": "中華電信",
    "FET": null,
    "TWM": "台灣大哥大",
    "TSTAR": "台灣之星",
    "APT": null
  },
  {
    "id": 115,
    "name": "礁溪跑馬古道",
    "manage": "羅東",
    "Place": "跑馬古道4.0k",
    "county": "宜蘭縣",
    "twd97_X": 328567,
    "twd97_Y": 2748649,
    "WGS84_East_longitude": 121.777353,
    "WGS84_north_latitude": 24.843338,
    "CHT": "中華電信",
    "FET": null,
    "TWM": "台灣大哥大",
    "TSTAR": "台灣之星",
    "APT": null
  },
  {
    "id": 116,
    "name": "蘇花古道：大南澳越嶺段",
    "manage": "羅東",
    "Place": "蘇花古道大南澳越嶺段3.8K",
    "county": "宜蘭縣",
    "twd97_X": 332845,
    "twd97_Y": 2706601,
    "WGS84_East_longitude": 121.817203,
    "WGS84_north_latitude": 24.463502,
    "CHT": "中華電信",
    "FET": null,
    "TWM": "台灣大哥大",
    "TSTAR": "台灣之星",
    "APT": null
  },
  {
    "id": 117,
    "name": "蘇花古道：大南澳越嶺段",
    "manage": "羅東",
    "Place": "蘇花古道大南澳越嶺段1.4K",
    "county": "宜蘭縣",
    "twd97_X": 334160,
    "twd97_Y": 2707901,
    "WGS84_East_longitude": 121.830252,
    "WGS84_north_latitude": 24.475171,
    "CHT": "中華電信",
    "FET": null,
    "TWM": "台灣大哥大",
    "TSTAR": null,
    "APT": null
  },
  {
    "id": 118,
    "name": "蘇花古道：大南澳越嶺段",
    "manage": "羅東",
    "Place": "蘇花古道大南澳越嶺段0.8K",
    "county": "宜蘭縣",
    "twd97_X": 334383,
    "twd97_Y": 2708346,
    "WGS84_East_longitude": 121.832476,
    "WGS84_north_latitude": 24.479178,
    "CHT": "中華電信",
    "FET": null,
    "TWM": "台灣大哥大",
    "TSTAR": "台灣之星",
    "APT": null
  },
  {
    "id": 119,
    "name": "蘇花古道：大南澳越嶺段",
    "manage": "羅東",
    "Place": "蘇花古道大南澳越嶺段0.4K",
    "county": "宜蘭縣",
    "twd97_X": 334667,
    "twd97_Y": 2708468,
    "WGS84_East_longitude": 121.835282,
    "WGS84_north_latitude": 24.480259,
    "CHT": "中華電信",
    "FET": null,
    "TWM": "台灣大哥大",
    "TSTAR": null,
    "APT": null
  },
  {
    "id": 120,
    "name": "塔曼山登山步道",
    "manage": "新竹",
    "Place": "200M處(第二量測點)",
    "county": "桃園市",
    "twd97_X": 293377,
    "twd97_Y": 2732628,
    "WGS84_East_longitude": 121.4286999,
    "WGS84_north_latitude": 24.7000616,
    "CHT": "中華電信",
    "FET": null,
    "TWM": "台灣大哥大",
    "TSTAR": null,
    "APT": null
  },
  {
    "id": 121,
    "name": "塔曼山登山步道",
    "manage": "新竹",
    "Place": "650M處(第四量測點)",
    "county": "桃園市",
    "twd97_X": 293863,
    "twd97_Y": 2732619,
    "WGS84_East_longitude": 121.4334566,
    "WGS84_north_latitude": 24.69997,
    "CHT": "中華電信",
    "FET": null,
    "TWM": "台灣大哥大",
    "TSTAR": null,
    "APT": null
  },
  {
    "id": 122,
    "name": "五指山步道",
    "manage": "新竹",
    "Place": "里程0.8K",
    "county": "新竹縣",
    "twd97_X": 259080.856,
    "twd97_Y": 2725397.757,
    "WGS84_East_longitude": 121.0897,
    "WGS84_north_latitude": 24.6354,
    "CHT": "中華電信",
    "FET": "遠傳電信",
    "TWM": null,
    "TSTAR": "台灣之星",
    "APT": null
  },
  {
    "id": 123,
    "name": "滿月圓國家森林遊樂區步道群",
    "manage": "新竹",
    "Place": "健行步道0.6k",
    "county": "新北市",
    "twd97_X": 295244,
    "twd97_Y": 2746702,
    "WGS84_East_longitude": 121.4476,
    "WGS84_north_latitude": 24.827112,
    "CHT": "中華電信",
    "FET": "遠傳電信",
    "TWM": null,
    "TSTAR": null,
    "APT": null
  },
  {
    "id": 124,
    "name": "滿月圓國家森林遊樂區步道群",
    "manage": "新竹",
    "Place": "健行步道1k",
    "county": "新北市",
    "twd97_X": 295423,
    "twd97_Y": 2746375,
    "WGS84_East_longitude": 121.44936,
    "WGS84_north_latitude": 24.82415,
    "CHT": "中華電信",
    "FET": "遠傳電信",
    "TWM": null,
    "TSTAR": null,
    "APT": null
  },
  {
    "id": 125,
    "name": "觀霧國家森林遊樂區步道群",
    "manage": "新竹",
    "Place": "榛山3K",
    "county": "苗栗縣",
    "twd97_X": 261763,
    "twd97_Y": 2710790,
    "WGS84_East_longitude": 121.1160821,
    "WGS84_north_latitude": 24.5034973,
    "CHT": "中華電信",
    "FET": "遠傳電信",
    "TWM": "台灣大哥大",
    "TSTAR": null,
    "APT": null
  },
  {
    "id": 126,
    "name": "大鹿林道東線",
    "manage": "新竹",
    "Place": "大鹿林道東線(0K)",
    "county": "苗栗縣",
    "twd97_X": 261618,
    "twd97_Y": 2710974,
    "WGS84_East_longitude": 121.1146496,
    "WGS84_north_latitude": 24.5051552,
    "CHT": "中華電信",
    "FET": "遠傳電信",
    "TWM": "台灣大哥大",
    "TSTAR": null,
    "APT": null
  },
  {
    "id": 127,
    "name": "大霸尖山登山步道",
    "manage": "新竹",
    "Place": "大霸主線4.5K",
    "county": "苗栗縣",
    "twd97_X": 270249,
    "twd97_Y": 2707183,
    "WGS84_East_longitude": 121.19976,
    "WGS84_north_latitude": 24.470839,
    "CHT": "中華電信",
    "FET": "遠傳電信",
    "TWM": "台灣大哥大",
    "TSTAR": null,
    "APT": null
  },
  {
    "id": 128,
    "name": "滿月圓國家森林遊樂區步道群",
    "manage": "新竹",
    "Place": "健行步道0K",
    "county": "新北市",
    "twd97_X": 294939,
    "twd97_Y": 2747069,
    "WGS84_East_longitude": 121.4445,
    "WGS84_north_latitude": 24.8306,
    "CHT": "中華電信",
    "FET": "遠傳電信",
    "TWM": "台灣大哥大",
    "TSTAR": "台灣之星",
    "APT": null
  },
  {
    "id": 129,
    "name": "滿月圓國家森林遊樂區步道群",
    "manage": "新竹",
    "Place": "自導式步道0K",
    "county": "新北市",
    "twd97_X": 295316,
    "twd97_Y": 2746567,
    "WGS84_East_longitude": 121.4482,
    "WGS84_north_latitude": 24.826,
    "CHT": "中華電信",
    "FET": "遠傳電信",
    "TWM": "台灣大哥大",
    "TSTAR": "台灣之星",
    "APT": null
  },
  {
    "id": 130,
    "name": "東眼山國家森林遊樂區步道群",
    "manage": "新竹",
    "Place": "小型車停車場",
    "county": "桃園市",
    "twd97_X": 291385,
    "twd97_Y": 2747285,
    "WGS84_East_longitude": 121.40944,
    "WGS84_north_latitude": 24.83248,
    "CHT": "中華電信",
    "FET": null,
    "TWM": "台灣大哥大",
    "TSTAR": "台灣之星",
    "APT": null
  },
  {
    "id": 131,
    "name": "東眼山國家森林遊樂區步道群",
    "manage": "新竹",
    "Place": "休憩涼亭",
    "county": "新北市",
    "twd97_X": 291850,
    "twd97_Y": 2747283,
    "WGS84_East_longitude": 121.41404,
    "WGS84_north_latitude": 24.83245,
    "CHT": "中華電信",
    "FET": null,
    "TWM": "台灣大哥大",
    "TSTAR": "台灣之星",
    "APT": null
  },
  {
    "id": 132,
    "name": "東眼山國家森林遊樂區步道群",
    "manage": "新竹",
    "Place": "東眼山三角點",
    "county": "桃園市",
    "twd97_X": 292206,
    "twd97_Y": 2746465,
    "WGS84_East_longitude": 121.41754,
    "WGS84_north_latitude": 24.82505,
    "CHT": "中華電信",
    "FET": null,
    "TWM": "台灣大哥大",
    "TSTAR": "台灣之星",
    "APT": null
  },
  {
    "id": 133,
    "name": "東眼山國家森林遊樂區步道群",
    "manage": "新竹",
    "Place": "景觀厠所",
    "county": "桃園市",
    "twd97_X": 291484,
    "twd97_Y": 2746712,
    "WGS84_East_longitude": 121.4104,
    "WGS84_north_latitude": 24.8273,
    "CHT": "中華電信",
    "FET": null,
    "TWM": "台灣大哥大",
    "TSTAR": "台灣之星",
    "APT": null
  },
  {
    "id": 134,
    "name": "東眼山國家森林遊樂區步道群",
    "manage": "新竹",
    "Place": "親子峰頂點",
    "county": "桃園市",
    "twd97_X": 291504,
    "twd97_Y": 2745913,
    "WGS84_East_longitude": 121.41058,
    "WGS84_north_latitude": 24.82009,
    "CHT": "中華電信",
    "FET": null,
    "TWM": "台灣大哥大",
    "TSTAR": "台灣之星",
    "APT": null
  },
  {
    "id": 135,
    "name": "東眼山國家森林遊樂區步道群",
    "manage": "新竹",
    "Place": "餐廳",
    "county": "桃園市",
    "twd97_X": 291424,
    "twd97_Y": 2746813,
    "WGS84_East_longitude": 121.40981,
    "WGS84_north_latitude": 24.82822,
    "CHT": "中華電信",
    "FET": null,
    "TWM": null,
    "TSTAR": "台灣之星",
    "APT": null
  },
  {
    "id": 136,
    "name": "東眼山國家森林遊樂區步道群",
    "manage": "新竹",
    "Place": "遊客中心",
    "county": "桃園市",
    "twd97_X": 291396,
    "twd97_Y": 2747147,
    "WGS84_East_longitude": 121.40954,
    "WGS84_north_latitude": 24.83123,
    "CHT": "中華電信",
    "FET": null,
    "TWM": "台灣大哥大",
    "TSTAR": "台灣之星",
    "APT": null
  },
  {
    "id": 137,
    "name": "東眼山國家森林遊樂區步道群",
    "manage": "新竹",
    "Place": "自導式步道0K",
    "county": "桃園市",
    "twd97_X": 291421,
    "twd97_Y": 2747088,
    "WGS84_East_longitude": 121.4098,
    "WGS84_north_latitude": 24.8307,
    "CHT": "中華電信",
    "FET": "遠傳電信",
    "TWM": "台灣大哥大",
    "TSTAR": null,
    "APT": null
  },
  {
    "id": 138,
    "name": "東眼山國家森林遊樂區步道群",
    "manage": "新竹",
    "Place": "自導式步道0.3K處裝置藝術旁",
    "county": "桃園市",
    "twd97_X": 291051,
    "twd97_Y": 2747599,
    "WGS84_East_longitude": 121.4061511,
    "WGS84_north_latitude": 24.8353277,
    "CHT": null,
    "FET": null,
    "TWM": "台灣大哥大",
    "TSTAR": null,
    "APT": null
  },
  {
    "id": 139,
    "name": "東眼山國家森林遊樂區步道群",
    "manage": "新竹",
    "Place": "自導式步道0.4K附近休息平台",
    "county": "桃園市",
    "twd97_X": 290005,
    "twd97_Y": 2747091,
    "WGS84_East_longitude": 121.3957911,
    "WGS84_north_latitude": 24.8307656,
    "CHT": null,
    "FET": null,
    "TWM": "台灣大哥大",
    "TSTAR": null,
    "APT": null
  },
  {
    "id": 140,
    "name": "東眼山國家森林遊樂區步道群",
    "manage": "新竹",
    "Place": "自導式步道1.1K休息平台",
    "county": "桃園市",
    "twd97_X": 291960,
    "twd97_Y": 2746986,
    "WGS84_East_longitude": 121.4151202,
    "WGS84_north_latitude": 24.829768,
    "CHT": null,
    "FET": null,
    "TWM": "台灣大哥大",
    "TSTAR": null,
    "APT": null
  },
  {
    "id": 141,
    "name": "東眼山國家森林遊樂區步道群",
    "manage": "新竹",
    "Place": "山頂觀景平台",
    "county": "桃園市",
    "twd97_X": 292220,
    "twd97_Y": 2746454,
    "WGS84_East_longitude": 121.4176837,
    "WGS84_north_latitude": 24.8249627,
    "CHT": null,
    "FET": null,
    "TWM": "台灣大哥大",
    "TSTAR": null,
    "APT": null
  },
  {
    "id": 142,
    "name": "東眼山國家森林遊樂區步道群",
    "manage": "新竹",
    "Place": "自導式步道支線出口處",
    "county": "桃園市",
    "twd97_X": 290077,
    "twd97_Y": 2747183,
    "WGS84_East_longitude": 121.3965056,
    "WGS84_north_latitude": 24.8315955,
    "CHT": null,
    "FET": null,
    "TWM": "台灣大哥大",
    "TSTAR": null,
    "APT": null
  },
  {
    "id": 143,
    "name": "東眼山國家森林遊樂區步道群",
    "manage": "新竹",
    "Place": "東眼山林道距化石區150M處",
    "county": "桃園市",
    "twd97_X": 281850,
    "twd97_Y": 2743517,
    "WGS84_East_longitude": 121.3150228,
    "WGS84_north_latitude": 24.7986956,
    "CHT": null,
    "FET": null,
    "TWM": "台灣大哥大",
    "TSTAR": null,
    "APT": null
  },
  {
    "id": 144,
    "name": "東眼山國家森林遊樂區步道群",
    "manage": "新竹",
    "Place": "往森林浴步道160公尺指示牌",
    "county": "桃園市",
    "twd97_X": 291191,
    "twd97_Y": 2746356,
    "WGS84_East_longitude": 121.4075,
    "WGS84_north_latitude": 24.8241,
    "CHT": "中華電信",
    "FET": "遠傳電信",
    "TWM": null,
    "TSTAR": null,
    "APT": null
  },
  {
    "id": 145,
    "name": "拉拉山巨木群步道",
    "manage": "新竹",
    "Place": "遊客中心",
    "county": "桃園市",
    "twd97_X": 293817,
    "twd97_Y": 2733841,
    "WGS84_East_longitude": 121.43308,
    "WGS84_north_latitude": 24.71103,
    "CHT": "中華電信",
    "FET": null,
    "TWM": "台灣大哥大",
    "TSTAR": "台灣之星",
    "APT": null
  },
  {
    "id": 146,
    "name": "拉拉山巨木群步道",
    "manage": "新竹",
    "Place": "1號巨木",
    "county": "桃園市",
    "twd97_X": 294264,
    "twd97_Y": 2733733,
    "WGS84_East_longitude": 121.43749,
    "WGS84_north_latitude": 24.71005,
    "CHT": "中華電信",
    "FET": null,
    "TWM": "台灣大哥大",
    "TSTAR": "台灣之星",
    "APT": null
  },
  {
    "id": 147,
    "name": "拉拉山巨木群步道",
    "manage": "新竹",
    "Place": "休憩區",
    "county": "桃園市",
    "twd97_X": 294534,
    "twd97_Y": 2733708,
    "WGS84_East_longitude": 121.44016,
    "WGS84_north_latitude": 24.70981,
    "CHT": "中華電信",
    "FET": null,
    "TWM": "台灣大哥大",
    "TSTAR": "台灣之星",
    "APT": null
  },
  {
    "id": 148,
    "name": "拉拉山巨木群步道",
    "manage": "新竹",
    "Place": "5號巨木觀景台",
    "county": "桃園市",
    "twd97_X": 294493,
    "twd97_Y": 2733561,
    "WGS84_East_longitude": 121.43975,
    "WGS84_north_latitude": 24.70849,
    "CHT": "中華電信",
    "FET": null,
    "TWM": "台灣大哥大",
    "TSTAR": "台灣之星",
    "APT": null
  },
  {
    "id": 149,
    "name": "拉拉山巨木群步道",
    "manage": "新竹",
    "Place": "叉路口",
    "county": "桃園市",
    "twd97_X": 294588,
    "twd97_Y": 2733798,
    "WGS84_East_longitude": 121.4407,
    "WGS84_north_latitude": 24.71062,
    "CHT": "中華電信",
    "FET": null,
    "TWM": null,
    "TSTAR": "台灣之星",
    "APT": null
  },
  {
    "id": 150,
    "name": "拉拉山巨木群步道",
    "manage": "新竹",
    "Place": "達觀亭",
    "county": "桃園市",
    "twd97_X": 294463,
    "twd97_Y": 2733923,
    "WGS84_East_longitude": 121.43947,
    "WGS84_north_latitude": 24.71176,
    "CHT": "中華電信",
    "FET": null,
    "TWM": null,
    "TSTAR": "台灣之星",
    "APT": null
  },
  {
    "id": 151,
    "name": "拉拉山巨木群步道",
    "manage": "新竹",
    "Place": "19號巨木",
    "county": "桃園市",
    "twd97_X": 294524,
    "twd97_Y": 2733873,
    "WGS84_East_longitude": 121.44007,
    "WGS84_north_latitude": 24.7113,
    "CHT": "中華電信",
    "FET": null,
    "TWM": null,
    "TSTAR": "台灣之星",
    "APT": null
  },
  {
    "id": 152,
    "name": "拉拉山巨木群步道",
    "manage": "新竹",
    "Place": "21號巨木",
    "county": "桃園市",
    "twd97_X": 294536,
    "twd97_Y": 2733799,
    "WGS84_East_longitude": 121.44018,
    "WGS84_north_latitude": 24.71063,
    "CHT": "中華電信",
    "FET": null,
    "TWM": null,
    "TSTAR": "台灣之星",
    "APT": null
  },
  {
    "id": 153,
    "name": "塔曼山登山步道",
    "manage": "新竹",
    "Place": "0.6K",
    "county": "桃園市",
    "twd97_X": 293825,
    "twd97_Y": 2732629,
    "WGS84_East_longitude": 121.4331,
    "WGS84_north_latitude": 24.7001,
    "CHT": "中華電信",
    "FET": "遠傳電信",
    "TWM": null,
    "TSTAR": "台灣之星",
    "APT": null
  },
  {
    "id": 154,
    "name": "塔曼山登山步道",
    "manage": "新竹",
    "Place": "登山口",
    "county": "桃園市",
    "twd97_X": 293227,
    "twd97_Y": 2732560,
    "WGS84_East_longitude": 121.4272,
    "WGS84_north_latitude": 24.6994,
    "CHT": "中華電信",
    "FET": null,
    "TWM": null,
    "TSTAR": "台灣之星",
    "APT": null
  },
  {
    "id": 155,
    "name": "塔曼山登山步道",
    "manage": "新竹",
    "Place": "登山口",
    "county": "桃園市",
    "twd97_X": 293274,
    "twd97_Y": 2732580,
    "WGS84_East_longitude": 121.4277,
    "WGS84_north_latitude": 24.6997,
    "CHT": "中華電信",
    "FET": "遠傳電信",
    "TWM": "台灣大哥大",
    "TSTAR": "台灣之星",
    "APT": null
  },
  {
    "id": 156,
    "name": "塔曼山登山步道",
    "manage": "新竹",
    "Place": "0.15k",
    "county": "桃園市",
    "twd97_X": 293375,
    "twd97_Y": 2732619,
    "WGS84_East_longitude": 121.4286,
    "WGS84_north_latitude": 24.7,
    "CHT": "中華電信",
    "FET": null,
    "TWM": null,
    "TSTAR": "台灣之星",
    "APT": null
  },
  {
    "id": 157,
    "name": "塔曼山登山步道",
    "manage": "新竹",
    "Place": "400M處(第三量測點)",
    "county": "桃園市",
    "twd97_X": 291357,
    "twd97_Y": 2731536,
    "WGS84_East_longitude": 121.4086516,
    "WGS84_north_latitude": 24.6903059,
    "CHT": null,
    "FET": null,
    "TWM": "台灣大哥大",
    "TSTAR": null,
    "APT": null
  },
  {
    "id": 158,
    "name": "塔曼山登山步道",
    "manage": "新竹",
    "Place": "1.45k",
    "county": "桃園市",
    "twd97_X": 294415,
    "twd97_Y": 2733039,
    "WGS84_East_longitude": 121.4389,
    "WGS84_north_latitude": 24.7037,
    "CHT": "中華電信",
    "FET": null,
    "TWM": null,
    "TSTAR": null,
    "APT": null
  },
  {
    "id": 159,
    "name": "北插天山登山步道",
    "manage": "新竹",
    "Place": "小烏來第一登山口前100M消防局告示牌",
    "county": "桃園市",
    "twd97_X": 292492,
    "twd97_Y": 2743457,
    "WGS84_East_longitude": 121.4203,
    "WGS84_north_latitude": 24.7979,
    "CHT": "中華電信",
    "FET": "遠傳電信",
    "TWM": "台灣大哥大",
    "TSTAR": "台灣之星",
    "APT": null
  },
  {
    "id": 160,
    "name": "北插天山登山步道",
    "manage": "新竹",
    "Place": "往北插赫威叉路指標",
    "county": "桃園市",
    "twd97_X": 293152,
    "twd97_Y": 2743094,
    "WGS84_East_longitude": 121.4268,
    "WGS84_north_latitude": 24.7946,
    "CHT": "中華電信",
    "FET": "遠傳電信",
    "TWM": "台灣大哥大",
    "TSTAR": "台灣之星",
    "APT": null
  },
  {
    "id": 161,
    "name": "北插天山登山步道",
    "manage": "新竹",
    "Place": "往赫威山3",
    "county": "桃園市",
    "twd97_X": 292412,
    "twd97_Y": 2743690,
    "WGS84_East_longitude": 121.4195,
    "WGS84_north_latitude": 24.8,
    "CHT": "中華電信",
    "FET": "遠傳電信",
    "TWM": "台灣大哥大",
    "TSTAR": "台灣之星",
    "APT": null
  },
  {
    "id": 162,
    "name": "北插天山登山步道",
    "manage": "新竹",
    "Place": "赫威山三角點",
    "county": "桃園市",
    "twd97_X": 293039,
    "twd97_Y": 2743703,
    "WGS84_East_longitude": 121.4256963,
    "WGS84_north_latitude": 24.80011379,
    "CHT": "中華電信",
    "FET": null,
    "TWM": "台灣大哥大",
    "TSTAR": null,
    "APT": null
  },
  {
    "id": 163,
    "name": "北插天山登山步道",
    "manage": "新竹",
    "Place": "小烏來第一登山口500M處",
    "county": "桃園市",
    "twd97_X": 289473,
    "twd97_Y": 2742851,
    "WGS84_East_longitude": 121.390432,
    "WGS84_north_latitude": 24.792497,
    "CHT": "中華電信",
    "FET": null,
    "TWM": "台灣大哥大",
    "TSTAR": null,
    "APT": null
  },
  {
    "id": 164,
    "name": "北插天山登山步道",
    "manage": "新竹",
    "Place": "小烏來第二登山口",
    "county": "桃園市",
    "twd97_X": 289473,
    "twd97_Y": 2742840,
    "WGS84_East_longitude": 121.3904,
    "WGS84_north_latitude": 24.7924,
    "CHT": "中華電信",
    "FET": null,
    "TWM": "台灣大哥大",
    "TSTAR": null,
    "APT": null
  },
  {
    "id": 165,
    "name": "北插天山登山步道",
    "manage": "新竹",
    "Place": "木屋遺址",
    "county": "桃園市",
    "twd97_X": 282140,
    "twd97_Y": 2743552,
    "WGS84_East_longitude": 121.3178828,
    "WGS84_north_latitude": 24.7990298,
    "CHT": "中華電信",
    "FET": null,
    "TWM": "台灣大哥大",
    "TSTAR": null,
    "APT": null
  },
  {
    "id": 166,
    "name": "北插天山登山步道",
    "manage": "新竹",
    "Place": "小烏來停車場附近產業道路口",
    "county": "桃園市",
    "twd97_X": 289473,
    "twd97_Y": 2742851,
    "WGS84_East_longitude": 121.3904321,
    "WGS84_north_latitude": 24.792479,
    "CHT": "中華電信",
    "FET": null,
    "TWM": "台灣大哥大",
    "TSTAR": null,
    "APT": null
  },
  {
    "id": 167,
    "name": "觀霧國家森林遊樂區步道群",
    "manage": "新竹",
    "Place": "榛山步道(0K)",
    "county": "苗栗縣",
    "twd97_X": 261493,
    "twd97_Y": 2710681,
    "WGS84_East_longitude": 121.11341,
    "WGS84_north_latitude": 24.502507,
    "CHT": "中華電信",
    "FET": null,
    "TWM": "台灣大哥大",
    "TSTAR": "台灣之星",
    "APT": null
  },
  {
    "id": 168,
    "name": "觀霧國家森林遊樂區步道群",
    "manage": "新竹",
    "Place": "大鹿林道西線叉路口",
    "county": "苗栗縣",
    "twd97_X": 261224,
    "twd97_Y": 2709938,
    "WGS84_East_longitude": 121.11075,
    "WGS84_north_latitude": 24.495801,
    "CHT": "中華電信",
    "FET": null,
    "TWM": "台灣大哥大",
    "TSTAR": "台灣之星",
    "APT": null
  },
  {
    "id": 169,
    "name": "觀霧國家森林遊樂區步道群",
    "manage": "新竹",
    "Place": "榛山北峰前休息地",
    "county": "苗栗縣",
    "twd97_X": 261408,
    "twd97_Y": 2708554,
    "WGS84_East_longitude": 121.11255,
    "WGS84_north_latitude": 24.483301,
    "CHT": "中華電信",
    "FET": null,
    "TWM": "台灣大哥大",
    "TSTAR": null,
    "APT": null
  },
  {
    "id": 170,
    "name": "觀霧國家森林遊樂區步道群",
    "manage": "新竹",
    "Place": "榛山(三角點)",
    "county": "苗栗縣",
    "twd97_X": 260965,
    "twd97_Y": 2708023,
    "WGS84_East_longitude": 121.10818,
    "WGS84_north_latitude": 24.478512,
    "CHT": "中華電信",
    "FET": null,
    "TWM": "台灣大哥大",
    "TSTAR": null,
    "APT": null
  },
  {
    "id": 171,
    "name": "觀霧國家森林遊樂區步道群",
    "manage": "新竹",
    "Place": "榛山步道觀景台",
    "county": "苗栗縣",
    "twd97_X": 261416,
    "twd97_Y": 2708602,
    "WGS84_East_longitude": 121.11263,
    "WGS84_north_latitude": 24.483734,
    "CHT": "中華電信",
    "FET": null,
    "TWM": "台灣大哥大",
    "TSTAR": "台灣之星",
    "APT": null
  },
  {
    "id": 172,
    "name": "觀霧國家森林遊樂區步道群",
    "manage": "新竹",
    "Place": "觀霧瀑布(巨木景觀台)",
    "county": "苗栗縣",
    "twd97_X": 262118,
    "twd97_Y": 2710243,
    "WGS84_East_longitude": 121.11957,
    "WGS84_north_latitude": 24.498549,
    "CHT": "中華電信",
    "FET": null,
    "TWM": "台灣大哥大",
    "TSTAR": "台灣之星",
    "APT": null
  },
  {
    "id": 173,
    "name": "觀霧國家森林遊樂區步道群",
    "manage": "新竹",
    "Place": "榛山0.5K",
    "county": "苗栗縣",
    "twd97_X": 261260,
    "twd97_Y": 2709649,
    "WGS84_East_longitude": 121.1111,
    "WGS84_north_latitude": 24.4932,
    "CHT": "中華電信",
    "FET": "遠傳電信",
    "TWM": "台灣大哥大",
    "TSTAR": "台灣之星",
    "APT": null
  },
  {
    "id": 174,
    "name": "觀霧國家森林遊樂區步道群",
    "manage": "新竹",
    "Place": "榛山1K",
    "county": "苗栗縣",
    "twd97_X": 261452,
    "twd97_Y": 2709417,
    "WGS84_East_longitude": 121.113,
    "WGS84_north_latitude": 24.4911,
    "CHT": "中華電信",
    "FET": "遠傳電信",
    "TWM": "台灣大哥大",
    "TSTAR": "台灣之星",
    "APT": null
  },
  {
    "id": 175,
    "name": "觀霧國家森林遊樂區步道群",
    "manage": "新竹",
    "Place": "榛山2.2K",
    "county": "苗栗縣",
    "twd97_X": 261827,
    "twd97_Y": 2709351,
    "WGS84_East_longitude": 121.1167,
    "WGS84_north_latitude": 24.4905,
    "CHT": "中華電信",
    "FET": "遠傳電信",
    "TWM": "台灣大哥大",
    "TSTAR": "台灣之星",
    "APT": null
  },
  {
    "id": 176,
    "name": "觀霧國家森林遊樂區步道群",
    "manage": "新竹",
    "Place": "榛山4K",
    "county": "苗栗縣",
    "twd97_X": 261330,
    "twd97_Y": 2709805,
    "WGS84_East_longitude": 121.1118,
    "WGS84_north_latitude": 24.4946,
    "CHT": "中華電信",
    "FET": "遠傳電信",
    "TWM": "台灣大哥大",
    "TSTAR": "台灣之星",
    "APT": null
  },
  {
    "id": 177,
    "name": "觀霧國家森林遊樂區步道群",
    "manage": "新竹",
    "Place": "大鹿林道西線叉路口",
    "county": "苗栗縣",
    "twd97_X": 261224,
    "twd97_Y": 2709938,
    "WGS84_East_longitude": 121.11075,
    "WGS84_north_latitude": 24.495801,
    "CHT": "中華電信",
    "FET": null,
    "TWM": null,
    "TSTAR": "台灣之星",
    "APT": null
  },
  {
    "id": 178,
    "name": "觀霧國家森林遊樂區步道群",
    "manage": "新竹",
    "Place": "榛山北峰前休息地",
    "county": "苗栗縣",
    "twd97_X": 261408,
    "twd97_Y": 2708554,
    "WGS84_East_longitude": 121.11255,
    "WGS84_north_latitude": 24.483301,
    "CHT": "中華電信",
    "FET": null,
    "TWM": null,
    "TSTAR": null,
    "APT": null
  },
  {
    "id": 179,
    "name": "觀霧國家森林遊樂區步道群",
    "manage": "新竹",
    "Place": "榛山(三角點)",
    "county": "苗栗縣",
    "twd97_X": 260965,
    "twd97_Y": 2708023,
    "WGS84_East_longitude": 121.10818,
    "WGS84_north_latitude": 24.478512,
    "CHT": "中華電信",
    "FET": null,
    "TWM": null,
    "TSTAR": null,
    "APT": null
  },
  {
    "id": 180,
    "name": "觀霧國家森林遊樂區步道群",
    "manage": "新竹",
    "Place": "榛山步道觀景台",
    "county": "苗栗縣",
    "twd97_X": 261416,
    "twd97_Y": 2708602,
    "WGS84_East_longitude": 121.11263,
    "WGS84_north_latitude": 24.483734,
    "CHT": "中華電信",
    "FET": null,
    "TWM": null,
    "TSTAR": "台灣之星",
    "APT": null
  },
  {
    "id": 181,
    "name": "觀霧國家森林遊樂區步道群",
    "manage": "新竹",
    "Place": "觀霧瀑布(巨木景觀台)",
    "county": "苗栗縣",
    "twd97_X": 262118,
    "twd97_Y": 2710243,
    "WGS84_East_longitude": 121.11957,
    "WGS84_north_latitude": 24.498549,
    "CHT": "中華電信",
    "FET": null,
    "TWM": null,
    "TSTAR": "台灣之星",
    "APT": null
  },
  {
    "id": 182,
    "name": "觀霧國家森林遊樂區步道群",
    "manage": "新竹",
    "Place": "瀑布步道入口",
    "county": "苗栗縣",
    "twd97_X": 261684,
    "twd97_Y": 2710868,
    "WGS84_East_longitude": 121.1153,
    "WGS84_north_latitude": 24.5042,
    "CHT": "中華電信",
    "FET": "遠傳電信",
    "TWM": "台灣大哥大",
    "TSTAR": "台灣之星",
    "APT": null
  },
  {
    "id": 183,
    "name": "觀霧國家森林遊樂區步道群",
    "manage": "新竹",
    "Place": "瀑布0.5K",
    "county": "苗栗縣",
    "twd97_X": 261897,
    "twd97_Y": 2710591,
    "WGS84_East_longitude": 121.1174,
    "WGS84_north_latitude": 24.5017,
    "CHT": "中華電信",
    "FET": "遠傳電信",
    "TWM": "台灣大哥大",
    "TSTAR": "台灣之星",
    "APT": null
  },
  {
    "id": 184,
    "name": "觀霧國家森林遊樂區步道群",
    "manage": "新竹",
    "Place": "瀑布1K",
    "county": "苗栗縣",
    "twd97_X": 262273,
    "twd97_Y": 2710215,
    "WGS84_East_longitude": 121.1211,
    "WGS84_north_latitude": 24.4983,
    "CHT": "中華電信",
    "FET": "遠傳電信",
    "TWM": "台灣大哥大",
    "TSTAR": "台灣之星",
    "APT": null
  },
  {
    "id": 185,
    "name": "觀霧國家森林遊樂區步道群",
    "manage": "新竹",
    "Place": "瀑布終點",
    "county": "苗栗縣",
    "twd97_X": 262323,
    "twd97_Y": 2709927,
    "WGS84_East_longitude": 121.1216,
    "WGS84_north_latitude": 24.4957,
    "CHT": "中華電信",
    "FET": "遠傳電信",
    "TWM": "台灣大哥大",
    "TSTAR": "台灣之星",
    "APT": null
  },
  {
    "id": 186,
    "name": "觀霧國家森林遊樂區步道群",
    "manage": "新竹",
    "Place": "樹木1",
    "county": "苗栗縣",
    "twd97_X": 261786,
    "twd97_Y": 2710735,
    "WGS84_East_longitude": 121.1163,
    "WGS84_north_latitude": 24.503,
    "CHT": "中華電信",
    "FET": "遠傳電信",
    "TWM": "台灣大哥大",
    "TSTAR": "台灣之星",
    "APT": null
  },
  {
    "id": 187,
    "name": "觀霧國家森林遊樂區步道群",
    "manage": "新竹",
    "Place": "往榛山步道入口",
    "county": "苗栗縣",
    "twd97_X": 261522,
    "twd97_Y": 2710602,
    "WGS84_East_longitude": 121.1137,
    "WGS84_north_latitude": 24.5018,
    "CHT": "中華電信",
    "FET": "遠傳電信",
    "TWM": "台灣大哥大",
    "TSTAR": "台灣之星",
    "APT": null
  },
  {
    "id": 188,
    "name": "觀霧國家森林遊樂區步道群",
    "manage": "新竹",
    "Place": "檜山步道4K",
    "county": "新竹縣",
    "twd97_X": 258898,
    "twd97_Y": 2710456,
    "WGS84_East_longitude": 121.0878,
    "WGS84_north_latitude": 24.5005,
    "CHT": "中華電信",
    "FET": "遠傳電信",
    "TWM": "台灣大哥大",
    "TSTAR": "台灣之星",
    "APT": null
  },
  {
    "id": 189,
    "name": "觀霧國家森林遊樂區步道群",
    "manage": "新竹",
    "Place": "檜山步道3K",
    "county": "新竹縣",
    "twd97_X": 259394,
    "twd97_Y": 2711021,
    "WGS84_East_longitude": 121.0927,
    "WGS84_north_latitude": 24.5056,
    "CHT": "中華電信",
    "FET": "遠傳電信",
    "TWM": "台灣大哥大",
    "TSTAR": "台灣之星",
    "APT": null
  },
  {
    "id": 190,
    "name": "觀霧國家森林遊樂區步道群",
    "manage": "新竹",
    "Place": "檜山步道3.5K",
    "county": "新竹縣",
    "twd97_X": 261143,
    "twd97_Y": 2715630,
    "WGS84_East_longitude": 121.1099941,
    "WGS84_north_latitude": 24.5471643,
    "CHT": null,
    "FET": "遠傳電信",
    "TWM": "台灣大哥大",
    "TSTAR": null,
    "APT": null
  },
  {
    "id": 191,
    "name": "觀霧國家森林遊樂區步道群",
    "manage": "新竹",
    "Place": "往1號巨木",
    "county": "新竹縣",
    "twd97_X": 259455,
    "twd97_Y": 2710877,
    "WGS84_East_longitude": 121.0933,
    "WGS84_north_latitude": 24.5043,
    "CHT": "中華電信",
    "FET": "遠傳電信",
    "TWM": "台灣大哥大",
    "TSTAR": "台灣之星",
    "APT": null
  },
  {
    "id": 192,
    "name": "觀霧國家森林遊樂區步道群",
    "manage": "新竹",
    "Place": "2號巨木",
    "county": "新竹縣",
    "twd97_X": 259556,
    "twd97_Y": 2710889,
    "WGS84_East_longitude": 121.0943,
    "WGS84_north_latitude": 24.5044,
    "CHT": "中華電信",
    "FET": "遠傳電信",
    "TWM": "台灣大哥大",
    "TSTAR": "台灣之星",
    "APT": null
  },
  {
    "id": 193,
    "name": "觀霧國家森林遊樂區步道群",
    "manage": "新竹",
    "Place": "3號巨木",
    "county": "新竹縣",
    "twd97_X": 259526,
    "twd97_Y": 2710966,
    "WGS84_East_longitude": 121.094,
    "WGS84_north_latitude": 24.5051,
    "CHT": "中華電信",
    "FET": "遠傳電信",
    "TWM": "台灣大哥大",
    "TSTAR": "台灣之星",
    "APT": null
  },
  {
    "id": 194,
    "name": "觀霧國家森林遊樂區步道群",
    "manage": "新竹",
    "Place": "蜜月0.45K",
    "county": "苗栗縣",
    "twd97_X": 261401,
    "twd97_Y": 2710536,
    "WGS84_East_longitude": 121.1125,
    "WGS84_north_latitude": 24.5012,
    "CHT": "中華電信",
    "FET": "遠傳電信",
    "TWM": "台灣大哥大",
    "TSTAR": "台灣之星",
    "APT": null
  },
  {
    "id": 195,
    "name": "觀霧國家森林遊樂區步道群",
    "manage": "新竹",
    "Place": "雲霧步道觀景台1",
    "county": "苗栗縣",
    "twd97_X": 261613,
    "twd97_Y": 2710868,
    "WGS84_East_longitude": 121.1146496,
    "WGS84_north_latitude": 24.5041565,
    "CHT": null,
    "FET": null,
    "TWM": "台灣大哥大",
    "TSTAR": null,
    "APT": null
  },
  {
    "id": 196,
    "name": "觀霧國家森林遊樂區步道群",
    "manage": "新竹",
    "Place": "雲霧步道觀景台2",
    "county": "新竹縣",
    "twd97_X": 261072,
    "twd97_Y": 2712824,
    "WGS84_East_longitude": 121.1092778,
    "WGS84_north_latitude": 24.5218604,
    "CHT": null,
    "FET": null,
    "TWM": "台灣大哥大",
    "TSTAR": null,
    "APT": null
  },
  {
    "id": 197,
    "name": "觀霧國家森林遊樂區步道群",
    "manage": "新竹",
    "Place": "平台1",
    "county": "苗栗縣",
    "twd97_X": 261755,
    "twd97_Y": 2711123,
    "WGS84_East_longitude": 121.116,
    "WGS84_north_latitude": 24.5065,
    "CHT": "中華電信",
    "FET": "遠傳電信",
    "TWM": null,
    "TSTAR": "台灣之星",
    "APT": null
  },
  {
    "id": 198,
    "name": "觀霧國家森林遊樂區步道群",
    "manage": "新竹",
    "Place": "平台2",
    "county": "苗栗縣",
    "twd97_X": 261795,
    "twd97_Y": 2711267,
    "WGS84_East_longitude": 121.1164,
    "WGS84_north_latitude": 24.5078,
    "CHT": "中華電信",
    "FET": "遠傳電信",
    "TWM": null,
    "TSTAR": "台灣之星",
    "APT": null
  },
  {
    "id": 199,
    "name": "觀霧國家森林遊樂區步道群",
    "manage": "新竹",
    "Place": "雲霧步道出口(大鹿林道東線旁)",
    "county": "苗栗縣",
    "twd97_X": 261745,
    "twd97_Y": 2711001,
    "WGS84_East_longitude": 121.1159,
    "WGS84_north_latitude": 24.5054,
    "CHT": "中華電信",
    "FET": "遠傳電信",
    "TWM": "台灣大哥大",
    "TSTAR": "台灣之星",
    "APT": null
  },
  {
    "id": 200,
    "name": "觀霧國家森林遊樂區步道群",
    "manage": "新竹",
    "Place": "榛山3.8K涼亭",
    "county": "苗栗縣",
    "twd97_X": 261763,
    "twd97_Y": 2710790,
    "WGS84_East_longitude": 121.1160821,
    "WGS84_north_latitude": 24.5034973,
    "CHT": "中華電信",
    "FET": null,
    "TWM": "台灣大哥大",
    "TSTAR": null,
    "APT": null
  },
  {
    "id": 201,
    "name": "觀霧國家森林遊樂區步道群",
    "manage": "新竹",
    "Place": "榛山步道往終點告示牌",
    "county": "苗栗縣",
    "twd97_X": 262040,
    "twd97_Y": 2709352,
    "WGS84_East_longitude": 121.118797,
    "WGS84_north_latitude": 24.49050747,
    "CHT": null,
    "FET": null,
    "TWM": "台灣大哥大",
    "TSTAR": null,
    "APT": null
  },
  {
    "id": 202,
    "name": "大鹿林道東線",
    "manage": "新竹",
    "Place": "管制站柵欄(0.4K)",
    "county": "苗栗縣",
    "twd97_X": 262096,
    "twd97_Y": 2710938,
    "WGS84_East_longitude": 121.11936,
    "WGS84_north_latitude": 24.504824,
    "CHT": "中華電信",
    "FET": null,
    "TWM": "台灣大哥大",
    "TSTAR": "台灣之星",
    "APT": null
  },
  {
    "id": 203,
    "name": "大鹿林道東線",
    "manage": "新竹",
    "Place": "大鹿林道東線(2K)",
    "county": "苗栗縣",
    "twd97_X": 263187,
    "twd97_Y": 2710518,
    "WGS84_East_longitude": 121.13012,
    "WGS84_north_latitude": 24.50102,
    "CHT": "中華電信",
    "FET": null,
    "TWM": null,
    "TSTAR": null,
    "APT": null
  },
  {
    "id": 204,
    "name": "大鹿林道東線",
    "manage": "新竹",
    "Place": "大鹿林道東線(0.5K)",
    "county": "苗栗縣",
    "twd97_X": 261909,
    "twd97_Y": 2710754,
    "WGS84_East_longitude": 121.1175145,
    "WGS84_north_latitude": 24.503171,
    "CHT": "中華電信",
    "FET": null,
    "TWM": "台灣大哥大",
    "TSTAR": null,
    "APT": null
  },
  {
    "id": 205,
    "name": "大鹿林道東線",
    "manage": "新竹",
    "Place": "大鹿林道東線(1K)",
    "county": "新竹縣",
    "twd97_X": 267386,
    "twd97_Y": 2710917,
    "WGS84_East_longitude": 121.171564,
    "WGS84_north_latitude": 24.5045842,
    "CHT": "中華電信",
    "FET": null,
    "TWM": "台灣大哥大",
    "TSTAR": null,
    "APT": null
  },
  {
    "id": 206,
    "name": "大鹿林道東線",
    "manage": "新竹",
    "Place": "大鹿林道東線(5K)",
    "county": "苗栗縣",
    "twd97_X": 263905,
    "twd97_Y": 2709884,
    "WGS84_East_longitude": 121.1372063,
    "WGS84_north_latitude": 24.4952972,
    "CHT": null,
    "FET": null,
    "TWM": "台灣大哥大",
    "TSTAR": null,
    "APT": null
  },
  {
    "id": 207,
    "name": "大鹿林道東線",
    "manage": "新竹",
    "Place": "大鹿林道東線(5.5K)",
    "county": "苗栗縣",
    "twd97_X": 264221,
    "twd97_Y": 2709761,
    "WGS84_East_longitude": 121.1403248,
    "WGS84_north_latitude": 24.494183,
    "CHT": null,
    "FET": null,
    "TWM": "台灣大哥大",
    "TSTAR": null,
    "APT": null
  },
  {
    "id": 208,
    "name": "大鹿林道東線",
    "manage": "新竹",
    "Place": "大鹿林道東線(6K)",
    "county": "苗栗縣",
    "twd97_X": 264482,
    "twd97_Y": 2709432,
    "WGS84_East_longitude": 121.1428954,
    "WGS84_north_latitude": 24.4912142,
    "CHT": null,
    "FET": null,
    "TWM": "台灣大哥大",
    "TSTAR": null,
    "APT": null
  },
  {
    "id": 209,
    "name": "大霸尖山登山步道",
    "manage": "新竹",
    "Place": "大霸尖山登山步道(0.5K)",
    "county": "苗栗縣",
    "twd97_X": 262171,
    "twd97_Y": 2710902,
    "WGS84_East_longitude": 121.1201,
    "WGS84_north_latitude": 24.5045,
    "CHT": "中華電信",
    "FET": "遠傳電信",
    "TWM": "台灣大哥大",
    "TSTAR": "台灣之星",
    "APT": null
  },
  {
    "id": 210,
    "name": "大霸尖山登山步道",
    "manage": "新竹",
    "Place": "大霸尖山登山步道(1K)",
    "county": "苗栗縣",
    "twd97_X": 262556,
    "twd97_Y": 2710625,
    "WGS84_East_longitude": 121.1239,
    "WGS84_north_latitude": 24.502,
    "CHT": "中華電信",
    "FET": "遠傳電信",
    "TWM": "台灣大哥大",
    "TSTAR": "台灣之星",
    "APT": null
  },
  {
    "id": 211,
    "name": "大霸尖山登山步道",
    "manage": "新竹",
    "Place": "大霸尖山登山步道(2.3K)",
    "county": "苗栗縣",
    "twd97_X": 270246,
    "twd97_Y": 2707342,
    "WGS84_East_longitude": 121.19973,
    "WGS84_north_latitude": 24.472268,
    "CHT": "中華電信",
    "FET": null,
    "TWM": null,
    "TSTAR": "台灣之星",
    "APT": null
  },
  {
    "id": 212,
    "name": "大霸尖山登山步道",
    "manage": "新竹",
    "Place": "大霸尖山登山步道(2.6K)",
    "county": "苗栗縣",
    "twd97_X": 270289,
    "twd97_Y": 2707085,
    "WGS84_East_longitude": 121.20015,
    "WGS84_north_latitude": 24.469951,
    "CHT": "中華電信",
    "FET": null,
    "TWM": "台灣大哥大",
    "TSTAR": "台灣之星",
    "APT": null
  },
  {
    "id": 213,
    "name": "大霸尖山登山步道",
    "manage": "新竹",
    "Place": "九九山莊後山丘",
    "county": "苗栗縣",
    "twd97_X": 271016,
    "twd97_Y": 2707005,
    "WGS84_East_longitude": 121.20732,
    "WGS84_north_latitude": 24.469214,
    "CHT": "中華電信",
    "FET": null,
    "TWM": "台灣大哥大",
    "TSTAR": "台灣之星",
    "APT": null
  },
  {
    "id": 214,
    "name": "大霸尖山登山步道",
    "manage": "新竹",
    "Place": "大霸尖山登山步道(5K)",
    "county": "苗栗縣",
    "twd97_X": 271845,
    "twd97_Y": 2706856,
    "WGS84_East_longitude": 121.2155,
    "WGS84_north_latitude": 24.467859,
    "CHT": "中華電信",
    "FET": null,
    "TWM": "台灣大哥大",
    "TSTAR": null,
    "APT": null
  },
  {
    "id": 215,
    "name": "大霸尖山登山步道",
    "manage": "新竹",
    "Place": "大霸主線5.5K",
    "county": "苗栗縣",
    "twd97_X": 272245,
    "twd97_Y": 2706744,
    "WGS84_East_longitude": 121.219446,
    "WGS84_north_latitude": 24.4668514,
    "CHT": null,
    "FET": null,
    "TWM": "台灣大哥大",
    "TSTAR": null,
    "APT": null
  },
  {
    "id": 216,
    "name": "大霸尖山登山步道",
    "manage": "新竹",
    "Place": "三叉路(6K)",
    "county": "苗栗縣",
    "twd97_X": 272656,
    "twd97_Y": 2706586,
    "WGS84_East_longitude": 121.22349,
    "WGS84_north_latitude": 24.465412,
    "CHT": "中華電信",
    "FET": null,
    "TWM": "台灣大哥大",
    "TSTAR": null,
    "APT": null
  },
  {
    "id": 217,
    "name": "大霸尖山登山步道",
    "manage": "新竹",
    "Place": "大霸主線6.5K",
    "county": "苗栗縣",
    "twd97_X": 272245,
    "twd97_Y": 2706744,
    "WGS84_East_longitude": 121.219446,
    "WGS84_north_latitude": 24.4668514,
    "CHT": null,
    "FET": null,
    "TWM": "台灣大哥大",
    "TSTAR": null,
    "APT": null
  },
  {
    "id": 218,
    "name": "大霸尖山登山步道",
    "manage": "新竹",
    "Place": "大霸尖山登山步道(7K)",
    "county": "苗栗縣",
    "twd97_X": 273505,
    "twd97_Y": 2706812,
    "WGS84_East_longitude": 121.23187,
    "WGS84_north_latitude": 24.467442,
    "CHT": "中華電信",
    "FET": null,
    "TWM": null,
    "TSTAR": null,
    "APT": null
  },
  {
    "id": 219,
    "name": "大霸尖山登山步道",
    "manage": "新竹",
    "Place": "大霸尖山(11K)",
    "county": "新竹縣",
    "twd97_X": 276178,
    "twd97_Y": 2705915,
    "WGS84_East_longitude": 121.25822,
    "WGS84_north_latitude": 24.459297,
    "CHT": "中華電信",
    "FET": null,
    "TWM": null,
    "TSTAR": null,
    "APT": null
  },
  {
    "id": 220,
    "name": "大霸尖山登山步道",
    "manage": "新竹",
    "Place": "加利山",
    "county": "苗栗縣",
    "twd97_X": 271921,
    "twd97_Y": 2705930,
    "WGS84_East_longitude": 121.21623,
    "WGS84_north_latitude": 24.459497,
    "CHT": "中華電信",
    "FET": null,
    "TWM": null,
    "TSTAR": null,
    "APT": null
  },
  {
    "id": 221,
    "name": "霞喀羅國家步道",
    "manage": "新竹",
    "Place": "養老步道口",
    "county": "新竹縣",
    "twd97_X": 275682,
    "twd97_Y": 2720323,
    "WGS84_East_longitude": 121.2536,
    "WGS84_north_latitude": 24.5894,
    "CHT": "中華電信",
    "FET": "遠傳電信",
    "TWM": "台灣大哥大",
    "TSTAR": null,
    "APT": null
  },
  {
    "id": 222,
    "name": "觀霸嶺步道",
    "manage": "新竹",
    "Place": "0.2K里程樁",
    "county": "新竹縣",
    "twd97_X": 280202,
    "twd97_Y": 2719081,
    "WGS84_East_longitude": 121.2982,
    "WGS84_north_latitude": 24.5781,
    "CHT": "中華電信",
    "FET": "遠傳電信",
    "TWM": null,
    "TSTAR": null,
    "APT": null
  },
  {
    "id": 223,
    "name": "泰崗楓樹林步道",
    "manage": "新竹",
    "Place": "告示牌1",
    "county": "新竹縣",
    "twd97_X": 279511,
    "twd97_Y": 2720275,
    "WGS84_East_longitude": 121.2914,
    "WGS84_north_latitude": 24.5889,
    "CHT": "中華電信",
    "FET": "遠傳電信",
    "TWM": null,
    "TSTAR": null,
    "APT": null
  },
  {
    "id": 224,
    "name": "泰崗楓樹林步道",
    "manage": "新竹",
    "Place": "泰崗楓樹林登山口",
    "county": "新竹縣",
    "twd97_X": 280958,
    "twd97_Y": 2721889,
    "WGS84_East_longitude": 121.3057273,
    "WGS84_north_latitude": 24.6034418,
    "CHT": null,
    "FET": null,
    "TWM": "台灣大哥大",
    "TSTAR": null,
    "APT": null
  },
  {
    "id": 225,
    "name": "泰崗楓樹林步道",
    "manage": "新竹",
    "Place": "泰崗楓樹林景觀台",
    "county": "新竹縣",
    "twd97_X": 280374,
    "twd97_Y": 2724169,
    "WGS84_East_longitude": 121.3000066,
    "WGS84_north_latitude": 24.624038,
    "CHT": null,
    "FET": null,
    "TWM": "台灣大哥大",
    "TSTAR": null,
    "APT": null
  },
  {
    "id": 226,
    "name": "石麻達山登山步道",
    "manage": "新竹",
    "Place": "往屯野生台山",
    "county": "新竹縣",
    "twd97_X": 277528,
    "twd97_Y": 2724004,
    "WGS84_East_longitude": 121.2719,
    "WGS84_north_latitude": 24.6226,
    "CHT": "中華電信",
    "FET": "遠傳電信",
    "TWM": null,
    "TSTAR": null,
    "APT": null
  },
  {
    "id": 227,
    "name": "石麻達山登山步道",
    "manage": "新竹",
    "Place": "屯野生台山三角點",
    "county": "新竹縣",
    "twd97_X": 277531,
    "twd97_Y": 2724007,
    "WGS84_East_longitude": 121.271928,
    "WGS84_north_latitude": 24.622625,
    "CHT": "中華電信",
    "FET": "遠傳電信",
    "TWM": "台灣大哥大",
    "TSTAR": null,
    "APT": null
  },
  {
    "id": 228,
    "name": "石麻達山登山步道",
    "manage": "新竹",
    "Place": "石麻達山三角點",
    "county": "新竹縣",
    "twd97_X": 258587,
    "twd97_Y": 2740407,
    "WGS84_East_longitude": 121.0849227,
    "WGS84_north_latitude": 24.7709262,
    "CHT": "中華電信",
    "FET": "遠傳電信",
    "TWM": "台灣大哥大",
    "TSTAR": null,
    "APT": null
  },
  {
    "id": 229,
    "name": "五指山步道",
    "manage": "新竹",
    "Place": "樹林",
    "county": "新竹縣",
    "twd97_X": 258787.104,
    "twd97_Y": 2725663.384,
    "WGS84_East_longitude": 121.0868,
    "WGS84_north_latitude": 24.6378,
    "CHT": "中華電信",
    "FET": "遠傳電信",
    "TWM": "台灣大哥大",
    "TSTAR": "台灣之星",
    "APT": null
  },
  {
    "id": 230,
    "name": "五指山步道",
    "manage": "新竹",
    "Place": "木梯(橫向岔路)",
    "county": "新竹縣",
    "twd97_X": 258817.523,
    "twd97_Y": 2725585.874,
    "WGS84_East_longitude": 121.0871,
    "WGS84_north_latitude": 24.6371,
    "CHT": "中華電信",
    "FET": "遠傳電信",
    "TWM": "台灣大哥大",
    "TSTAR": null,
    "APT": null
  },
  {
    "id": 231,
    "name": "五指山步道",
    "manage": "新竹",
    "Place": "木椅",
    "county": "新竹縣",
    "twd97_X": 258837.799,
    "twd97_Y": 2725541.584,
    "WGS84_East_longitude": 121.0873,
    "WGS84_north_latitude": 24.6367,
    "CHT": "中華電信",
    "FET": "遠傳電信",
    "TWM": "台灣大哥大",
    "TSTAR": "台灣之星",
    "APT": null
  },
  {
    "id": 232,
    "name": "五指山步道",
    "manage": "新竹",
    "Place": "木橋",
    "county": "新竹縣",
    "twd97_X": 258959.33,
    "twd97_Y": 2725464.132,
    "WGS84_East_longitude": 121.0885,
    "WGS84_north_latitude": 24.636,
    "CHT": "中華電信",
    "FET": "遠傳電信",
    "TWM": "台灣大哥大",
    "TSTAR": "台灣之星",
    "APT": null
  },
  {
    "id": 233,
    "name": "五指山步道",
    "manage": "新竹",
    "Place": "木梯",
    "county": "新竹縣",
    "twd97_X": 259212.397,
    "twd97_Y": 2725497.525,
    "WGS84_East_longitude": 121.091,
    "WGS84_north_latitude": 24.6363,
    "CHT": "中華電信",
    "FET": "遠傳電信",
    "TWM": "台灣大哥大",
    "TSTAR": "台灣之星",
    "APT": null
  },
  {
    "id": 234,
    "name": "北得拉曼步道",
    "manage": "新竹",
    "Place": "0.4K",
    "county": "新竹縣",
    "twd97_X": 278564,
    "twd97_Y": 2736686,
    "WGS84_East_longitude": 121.2824,
    "WGS84_north_latitude": 24.7371,
    "CHT": "中華電信",
    "FET": null,
    "TWM": null,
    "TSTAR": "台灣之星",
    "APT": null
  },
  {
    "id": 235,
    "name": "北得拉曼步道",
    "manage": "新竹",
    "Place": "0.7K",
    "county": "新竹縣",
    "twd97_X": 278779,
    "twd97_Y": 2736704,
    "WGS84_East_longitude": 121.2845,
    "WGS84_north_latitude": 24.7372,
    "CHT": "中華電信",
    "FET": null,
    "TWM": "台灣大哥大",
    "TSTAR": "台灣之星",
    "APT": null
  },
  {
    "id": 236,
    "name": "北得拉曼步道",
    "manage": "新竹",
    "Place": "峭壁旁",
    "county": "新竹縣",
    "twd97_X": 279018,
    "twd97_Y": 2736642,
    "WGS84_East_longitude": 121.2869,
    "WGS84_north_latitude": 24.7367,
    "CHT": "中華電信",
    "FET": null,
    "TWM": "台灣大哥大",
    "TSTAR": "台灣之星",
    "APT": null
  },
  {
    "id": 237,
    "name": "北得拉曼步道",
    "manage": "新竹",
    "Place": "1.3K",
    "county": "新竹縣",
    "twd97_X": 279134,
    "twd97_Y": 2736665,
    "WGS84_East_longitude": 121.288,
    "WGS84_north_latitude": 24.7369,
    "CHT": "中華電信",
    "FET": null,
    "TWM": "台灣大哥大",
    "TSTAR": "台灣之星",
    "APT": null
  },
  {
    "id": 238,
    "name": "北得拉曼步道",
    "manage": "新竹",
    "Place": "1.6叉路",
    "county": "新竹縣",
    "twd97_X": 279332,
    "twd97_Y": 2736718,
    "WGS84_East_longitude": 121.29,
    "WGS84_north_latitude": 24.7374,
    "CHT": "中華電信",
    "FET": null,
    "TWM": null,
    "TSTAR": "台灣之星",
    "APT": null
  },
  {
    "id": 239,
    "name": "馬里光瀑布步道",
    "manage": "新竹",
    "Place": "步道口",
    "county": "新竹縣",
    "twd97_X": 283748,
    "twd97_Y": 2726350,
    "WGS84_East_longitude": 121.3334,
    "WGS84_north_latitude": 24.6437,
    "CHT": "中華電信",
    "FET": null,
    "TWM": "台灣大哥大",
    "TSTAR": null,
    "APT": null
  },
  {
    "id": 240,
    "name": "馬里光瀑布步道",
    "manage": "新竹",
    "Place": "瀑布平台",
    "county": "新竹縣",
    "twd97_X": 283822,
    "twd97_Y": 2726096,
    "WGS84_East_longitude": 121.3341,
    "WGS84_north_latitude": 24.6414,
    "CHT": "中華電信",
    "FET": null,
    "TWM": "台灣大哥大",
    "TSTAR": null,
    "APT": null
  },
  {
    "id": 241,
    "name": "馬那邦山登山步道",
    "manage": "新竹",
    "Place": "上湖登山口 0.3K(工寮)",
    "county": "苗栗縣",
    "twd97_X": 240728.296,
    "twd97_Y": 2697066.838,
    "WGS84_East_longitude": 120.9086,
    "WGS84_north_latitude": 24.3796,
    "CHT": "中華電信",
    "FET": "遠傳電信",
    "TWM": "台灣大哥大",
    "TSTAR": null,
    "APT": null
  },
  {
    "id": 242,
    "name": "馬那邦山登山步道",
    "manage": "新竹",
    "Place": "上湖登山口",
    "county": "苗栗縣",
    "twd97_X": 240707.868,
    "twd97_Y": 2696856.421,
    "WGS84_East_longitude": 120.9084,
    "WGS84_north_latitude": 24.3777,
    "CHT": "中華電信",
    "FET": "遠傳電信",
    "TWM": "台灣大哥大",
    "TSTAR": "台灣之星",
    "APT": null
  },
  {
    "id": 243,
    "name": "馬那邦山登山步道",
    "manage": "新竹",
    "Place": "古戰場紀念場0.25K",
    "county": "苗栗縣",
    "twd97_X": 241113.443,
    "twd97_Y": 2696546.051,
    "WGS84_East_longitude": 120.9124,
    "WGS84_north_latitude": 24.3749,
    "CHT": "中華電信",
    "FET": "遠傳電信",
    "TWM": "台灣大哥大",
    "TSTAR": "台灣之星",
    "APT": null
  },
  {
    "id": 244,
    "name": "馬那邦山登山步道",
    "manage": "新竹",
    "Place": "古戰場紀念碑",
    "county": "苗栗縣",
    "twd97_X": 241184.42,
    "twd97_Y": 2696490.63,
    "WGS84_East_longitude": 120.9131,
    "WGS84_north_latitude": 24.3744,
    "CHT": "中華電信",
    "FET": "遠傳電信",
    "TWM": null,
    "TSTAR": "台灣之星",
    "APT": null
  },
  {
    "id": 245,
    "name": "馬那邦山登山步道",
    "manage": "新竹",
    "Place": "馬拉邦山山頂",
    "county": "苗栗縣",
    "twd97_X": 241244.791,
    "twd97_Y": 2695693.174,
    "WGS84_East_longitude": 120.9137,
    "WGS84_north_latitude": 24.3672,
    "CHT": null,
    "FET": "遠傳電信",
    "TWM": "台灣大哥大",
    "TSTAR": "台灣之星",
    "APT": null
  },
  {
    "id": 246,
    "name": "馬那邦山登山步道",
    "manage": "新竹",
    "Place": "往天然湖登山口1K",
    "county": "苗栗縣",
    "twd97_X": 240615.832,
    "twd97_Y": 2695748.955,
    "WGS84_East_longitude": 120.9075,
    "WGS84_north_latitude": 24.3677,
    "CHT": null,
    "FET": "遠傳電信",
    "TWM": null,
    "TSTAR": null,
    "APT": null
  },
  {
    "id": 247,
    "name": "馬那邦山登山步道",
    "manage": "新竹",
    "Place": "天然湖登山口",
    "county": "苗栗縣",
    "twd97_X": 240220.091,
    "twd97_Y": 2695627.396,
    "WGS84_East_longitude": 120.9036,
    "WGS84_north_latitude": 24.3666,
    "CHT": null,
    "FET": "遠傳電信",
    "TWM": "台灣大哥大",
    "TSTAR": null,
    "APT": null
  },
  {
    "id": 248,
    "name": "鳥嘴山登山步道",
    "manage": "新竹",
    "Place": "登山口",
    "county": "苗栗縣",
    "twd97_X": 247780.0409,
    "twd97_Y": 2707171.309,
    "WGS84_East_longitude": 120.9765,
    "WGS84_north_latitude": 24.47,
    "CHT": "中華電信",
    "FET": "遠傳電信",
    "TWM": "台灣大哥大",
    "TSTAR": null,
    "APT": "亞太電信"
  },
  {
    "id": 249,
    "name": "鳥嘴山登山步道",
    "manage": "新竹",
    "Place": "2.4K",
    "county": "苗栗縣",
    "twd97_X": 248435,
    "twd97_Y": 2705979,
    "WGS84_East_longitude": 120.9816,
    "WGS84_north_latitude": 24.4615,
    "CHT": "中華電信",
    "FET": "遠傳電信",
    "TWM": "台灣大哥大",
    "TSTAR": null,
    "APT": null
  },
  {
    "id": 250,
    "name": "冬瓜山登山步道",
    "manage": "新竹",
    "Place": "1K",
    "county": "苗栗縣",
    "twd97_X": 246440.2488,
    "twd97_Y": 2705929.259,
    "WGS84_East_longitude": 120.9649,
    "WGS84_north_latitude": 24.4594,
    "CHT": "中華電信",
    "FET": "遠傳電信",
    "TWM": "台灣大哥大",
    "TSTAR": "台灣之星",
    "APT": null
  },
  {
    "id": 251,
    "name": "冬瓜山登山步道",
    "manage": "新竹",
    "Place": "登山步道入口地圖區",
    "county": "苗栗縣",
    "twd97_X": 246183.909,
    "twd97_Y": 2706829.645,
    "WGS84_East_longitude": 120.9624,
    "WGS84_north_latitude": 24.4678,
    "CHT": "中華電信",
    "FET": null,
    "TWM": "台灣大哥大",
    "TSTAR": null,
    "APT": "亞太電信"
  },
  {
    "id": 252,
    "name": "冬瓜山登山步道",
    "manage": "新竹",
    "Place": "1.1K休息區",
    "county": "苗栗縣",
    "twd97_X": 246416.008,
    "twd97_Y": 2705885.074,
    "WGS84_East_longitude": 120.9646,
    "WGS84_north_latitude": 24.4592,
    "CHT": "中華電信",
    "FET": null,
    "TWM": "台灣大哥大",
    "TSTAR": null,
    "APT": null
  },
  {
    "id": 253,
    "name": "冬瓜山登山步道",
    "manage": "新竹",
    "Place": "1.6KM神木區",
    "county": "苗栗縣",
    "twd97_X": 246066.977,
    "twd97_Y": 2705923.931,
    "WGS84_East_longitude": 120.9612,
    "WGS84_north_latitude": 24.4596,
    "CHT": "中華電信",
    "FET": "遠傳電信",
    "TWM": "台灣大哥大",
    "TSTAR": null,
    "APT": null
  },
  {
    "id": 254,
    "name": "加里山步道",
    "manage": "新竹",
    "Place": "加里山_第三點",
    "county": "苗栗縣",
    "twd97_X": 251328.5569,
    "twd97_Y": 2712218.936,
    "WGS84_East_longitude": 121.0131,
    "WGS84_north_latitude": 24.5164,
    "CHT": "中華電信",
    "FET": null,
    "TWM": "台灣大哥大",
    "TSTAR": null,
    "APT": null
  },
  {
    "id": 255,
    "name": "內洞國家森林遊樂區",
    "manage": "新竹",
    "Place": "售票口",
    "county": "新北市",
    "twd97_X": 303201,
    "twd97_Y": 2747524,
    "WGS84_East_longitude": "121.526349",
    "WGS84_north_latitude": "24.834276",
    "CHT": "中華電信",
    "FET": "遠傳電信",
    "TWM": "台灣大哥大",
    "TSTAR": "台灣之星",
    "APT": "亞太電信"
  },
  {
    "id": 256,
    "name": "內洞國家森林遊樂區",
    "manage": "新竹",
    "Place": "觀瀑步道台電旁",
    "county": "新北市",
    "twd97_X": 303172,
    "twd97_Y": 2747505,
    "WGS84_East_longitude": "121.526057",
    "WGS84_north_latitude": "24.834098",
    "CHT": "中華電信",
    "FET": "遠傳電信",
    "TWM": "台灣大哥大",
    "TSTAR": "台灣之星",
    "APT": "亞太電信"
  },
  {
    "id": 257,
    "name": "內洞國家森林遊樂區",
    "manage": "新竹",
    "Place": "賞景步道與觀瀑步道叉路涼亭",
    "county": "新北市",
    "twd97_X": 303152,
    "twd97_Y": 2747479,
    "WGS84_East_longitude": "121.525862",
    "WGS84_north_latitude": "24.83387",
    "CHT": "中華電信",
    "FET": "遠傳電信",
    "TWM": "台灣大哥大",
    "TSTAR": "台灣之星",
    "APT": "亞太電信"
  },
  {
    "id": 258,
    "name": "內洞國家森林遊樂區",
    "manage": "新竹",
    "Place": "樂水橋",
    "county": "新北市",
    "twd97_X": 303206,
    "twd97_Y": 2746772,
    "WGS84_East_longitude": "121.526372",
    "WGS84_north_latitude": "24.827481",
    "CHT": "中華電信",
    "FET": "遠傳電信",
    "TWM": "台灣大哥大",
    "TSTAR": "台灣之星",
    "APT": "亞太電信"
  },
  {
    "id": 259,
    "name": "內洞國家森林遊樂區",
    "manage": "新竹",
    "Place": "上層瀑布區",
    "county": "新北市",
    "twd97_X": 303271,
    "twd97_Y": 2746773,
    "WGS84_East_longitude": 121.527013,
    "WGS84_north_latitude": 24.827485,
    "CHT": "中華電信",
    "FET": "遠傳電信",
    "TWM": "台灣大哥大",
    "TSTAR": "台灣之星",
    "APT": null
  },
  {
    "id": 260,
    "name": "內洞國家森林遊樂區",
    "manage": "新竹",
    "Place": "森林浴步道_賞景步道岔路口涼亭",
    "county": "新北市",
    "twd97_X": 303562.092,
    "twd97_Y": 2747019.053,
    "WGS84_East_longitude": 121.5299,
    "WGS84_north_latitude": 24.8297,
    "CHT": null,
    "FET": "遠傳電信",
    "TWM": null,
    "TSTAR": null,
    "APT": null
  },
  {
    "id": 261,
    "name": "內洞國家森林遊樂區",
    "manage": "新竹",
    "Place": "森林浴步道_終點",
    "county": "新北市",
    "twd97_X": 303703.0885,
    "twd97_Y": 2747152.519,
    "WGS84_East_longitude": 121.5313,
    "WGS84_north_latitude": 24.8309,
    "CHT": null,
    "FET": "遠傳電信",
    "TWM": null,
    "TSTAR": null,
    "APT": null
  },
  {
    "id": 262,
    "name": "內洞國家森林遊樂區",
    "manage": "新竹",
    "Place": "賞景步道_觀景平台",
    "county": "新北市",
    "twd97_X": 303479.9811,
    "twd97_Y": 2747339.951,
    "WGS84_East_longitude": 121.5291,
    "WGS84_north_latitude": 24.8326,
    "CHT": null,
    "FET": "遠傳電信",
    "TWM": null,
    "TSTAR": null,
    "APT": null
  },
  {
    "id": 263,
    "name": "福巴越嶺國家步道",
    "manage": "新竹",
    "Place": "0k",
    "county": "桃園市",
    "twd97_X": 293859,
    "twd97_Y": 2733844,
    "WGS84_East_longitude": 121.4335,
    "WGS84_north_latitude": 24.71106,
    "CHT": null,
    "FET": "遠傳電信",
    "TWM": null,
    "TSTAR": null,
    "APT": null
  },
  {
    "id": 264,
    "name": "福巴越嶺國家步道",
    "manage": "新竹",
    "Place": "1.5k",
    "county": "桃園市",
    "twd97_X": 294304,
    "twd97_Y": 2733948,
    "WGS84_East_longitude": 121.4379,
    "WGS84_north_latitude": 24.711993,
    "CHT": null,
    "FET": "遠傳電信",
    "TWM": null,
    "TSTAR": null,
    "APT": null
  },
  {
    "id": 265,
    "name": "福巴越嶺國家步道",
    "manage": "新竹",
    "Place": "2k",
    "county": "桃園市",
    "twd97_X": 294307,
    "twd97_Y": 2734361,
    "WGS84_East_longitude": 121.43794,
    "WGS84_north_latitude": 24.715722,
    "CHT": null,
    "FET": "遠傳電信",
    "TWM": null,
    "TSTAR": null,
    "APT": null
  },
  {
    "id": 266,
    "name": "福巴越嶺國家步道",
    "manage": "新竹",
    "Place": "2.5k",
    "county": "桃園市",
    "twd97_X": 294566,
    "twd97_Y": 2734587,
    "WGS84_East_longitude": 121.44051,
    "WGS84_north_latitude": 24.717752,
    "CHT": null,
    "FET": "遠傳電信",
    "TWM": null,
    "TSTAR": null,
    "APT": null
  },
  {
    "id": 267,
    "name": "福巴越嶺國家步道",
    "manage": "新竹",
    "Place": " 3k",
    "county": "桃園市",
    "twd97_X": 294675,
    "twd97_Y": 2734933,
    "WGS84_East_longitude": 121.4416,
    "WGS84_north_latitude": 24.72087,
    "CHT": null,
    "FET": "遠傳電信",
    "TWM": null,
    "TSTAR": null,
    "APT": null
  },
  {
    "id": 268,
    "name": "福巴越嶺國家步道",
    "manage": "新竹",
    "Place": "17k",
    "county": "新北市",
    "twd97_X": 301267,
    "twd97_Y": 2740274,
    "WGS84_East_longitude": 121.50695,
    "WGS84_north_latitude": 24.768886,
    "CHT": null,
    "FET": "遠傳電信",
    "TWM": null,
    "TSTAR": null,
    "APT": null
  },
  {
    "id": 269,
    "name": "福巴越嶺國家步道",
    "manage": "新竹",
    "Place": "17.5k",
    "county": "新北市",
    "twd97_X": 301104,
    "twd97_Y": 2740729,
    "WGS84_East_longitude": 121.50536,
    "WGS84_north_latitude": 24.772996,
    "CHT": null,
    "FET": "遠傳電信",
    "TWM": null,
    "TSTAR": null,
    "APT": null
  },
  {
    "id": 270,
    "name": "福巴越嶺國家步道",
    "manage": "新竹",
    "Place": "18k",
    "county": "新北市",
    "twd97_X": 300887,
    "twd97_Y": 2740951,
    "WGS84_East_longitude": 121.50322,
    "WGS84_north_latitude": 24.775016,
    "CHT": null,
    "FET": "遠傳電信",
    "TWM": null,
    "TSTAR": null,
    "APT": null
  },
  {
    "id": 271,
    "name": "觀霧國家森林遊樂區步道群",
    "manage": "新竹",
    "Place": "榛山0K",
    "county": "苗栗縣",
    "twd97_X": 261205.041,
    "twd97_Y": 2709937.825,
    "WGS84_East_longitude": 121.11056,
    "WGS84_north_latitude": 24.4958,
    "CHT": null,
    "FET": "遠傳電信",
    "TWM": null,
    "TSTAR": null,
    "APT": null
  },
  {
    "id": 272,
    "name": "觀霧國家森林遊樂區步道群",
    "manage": "新竹",
    "Place": "榛山3.5K",
    "county": "苗栗縣",
    "twd97_X": 261695,
    "twd97_Y": 2709672,
    "WGS84_East_longitude": 121.1154,
    "WGS84_north_latitude": 24.4934,
    "CHT": "中華電信",
    "FET": "遠傳電信",
    "TWM": "台灣大哥大",
    "TSTAR": "台灣之星",
    "APT": null
  },
  {
    "id": 273,
    "name": "觀霧國家森林遊樂區步道群",
    "manage": "新竹",
    "Place": "雲霧步道入口",
    "county": "苗栗縣",
    "twd97_X": 261633,
    "twd97_Y": 2711145,
    "WGS84_East_longitude": 121.1148,
    "WGS84_north_latitude": 24.5067,
    "CHT": "中華電信",
    "FET": "遠傳電信",
    "TWM": null,
    "TSTAR": "台灣之星",
    "APT": null
  },
  {
    "id": 274,
    "name": "觀霧國家森林遊樂區步道群",
    "manage": "新竹",
    "Place": "觀霧步道0.5K（最高點觀景台）",
    "county": "苗栗縣",
    "twd97_X": 261765,
    "twd97_Y": 2711200,
    "WGS84_East_longitude": 121.1160821,
    "WGS84_north_latitude": 24.5071593,
    "CHT": null,
    "FET": "遠傳電信",
    "TWM": "台灣大哥大",
    "TSTAR": null,
    "APT": null
  },
  {
    "id": 275,
    "name": "大鹿林道東線",
    "manage": "新竹",
    "Place": "大鹿林道東線(4K)",
    "county": "苗栗縣",
    "twd97_X": 263408,
    "twd97_Y": 2710343,
    "WGS84_East_longitude": 121.1323,
    "WGS84_north_latitude": 24.499444,
    "CHT": "中華電信",
    "FET": "遠傳電信",
    "TWM": "台灣大哥大",
    "TSTAR": "台灣之星",
    "APT": null
  },
  {
    "id": 276,
    "name": "鳥嘴山登山步道",
    "manage": "新竹",
    "Place": "鳥嘴山第二點",
    "county": "苗栗縣",
    "twd97_X": 247344.151,
    "twd97_Y": 2707131.514,
    "WGS84_East_longitude": 120.9738,
    "WGS84_north_latitude": 24.4705,
    "CHT": "中華電信",
    "FET": "遠傳電信",
    "TWM": "台灣大哥大",
    "TSTAR": null,
    "APT": "亞太電信"
  },
  {
    "id": 277,
    "name": "鳥嘴山登山步道",
    "manage": "新竹",
    "Place": "鳥嘴山_第三點",
    "county": "苗栗縣",
    "twd97_X": 246437.873,
    "twd97_Y": 2706951.186,
    "WGS84_East_longitude": 120.9649,
    "WGS84_north_latitude": 24.4689,
    "CHT": "中華電信",
    "FET": "遠傳電信",
    "TWM": "台灣大哥大",
    "TSTAR": null,
    "APT": "亞太電信"
  },
  {
    "id": 278,
    "name": "鳥嘴山登山步道",
    "manage": "新竹",
    "Place": "鳥嘴山_第四點",
    "county": "苗栗縣",
    "twd97_X": 245965.459,
    "twd97_Y": 2706843.882,
    "WGS84_East_longitude": 120.9602,
    "WGS84_north_latitude": 24.4679,
    "CHT": "中華電信",
    "FET": "遠傳電信",
    "TWM": "台灣大哥大",
    "TSTAR": null,
    "APT": "亞太電信"
  },
  {
    "id": 279,
    "name": "鳥嘴山登山步道",
    "manage": "新竹",
    "Place": "鳥嘴山_第五點",
    "county": "苗栗縣",
    "twd97_X": 246437.873,
    "twd97_Y": 2706951.186,
    "WGS84_East_longitude": 120.9649,
    "WGS84_north_latitude": 24.4689,
    "CHT": "中華電信",
    "FET": "遠傳電信",
    "TWM": "台灣大哥大",
    "TSTAR": null,
    "APT": "亞太電信"
  },
  {
    "id": 280,
    "name": "鳥嘴山登山步道",
    "manage": "新竹",
    "Place": "鳥嘴山_第六點",
    "county": "苗栗縣",
    "twd97_X": 247840.777,
    "twd97_Y": 2706621.96,
    "WGS84_East_longitude": 120.9787,
    "WGS84_north_latitude": 24.4659,
    "CHT": "中華電信",
    "FET": "遠傳電信",
    "TWM": "台灣大哥大",
    "TSTAR": null,
    "APT": null
  },
  {
    "id": 281,
    "name": "鳥嘴山登山步道",
    "manage": "新竹",
    "Place": "鳥嘴山_第八點",
    "county": "苗栗縣",
    "twd97_X": 248347.531,
    "twd97_Y": 2705724.785,
    "WGS84_East_longitude": 120.9837,
    "WGS84_north_latitude": 24.4578,
    "CHT": "中華電信",
    "FET": "遠傳電信",
    "TWM": "台灣大哥大",
    "TSTAR": null,
    "APT": null
  },
  {
    "id": 282,
    "name": "鳥嘴山登山步道",
    "manage": "新竹",
    "Place": "鳥嘴山_第九點",
    "county": "苗栗縣",
    "twd97_X": 245083.521,
    "twd97_Y": 2706799.862,
    "WGS84_East_longitude": 120.9515,
    "WGS84_north_latitude": 24.4675,
    "CHT": "中華電信",
    "FET": "遠傳電信",
    "TWM": "台灣大哥大",
    "TSTAR": null,
    "APT": "亞太電信"
  },
  {
    "id": 283,
    "name": "鳥嘴山登山步道",
    "manage": "新竹",
    "Place": "鳥嘴山_第十點",
    "county": "苗栗縣",
    "twd97_X": 248506.694,
    "twd97_Y": 2705709.262,
    "WGS84_East_longitude": 120.9853,
    "WGS84_north_latitude": 24.4577,
    "CHT": "中華電信",
    "FET": "遠傳電信",
    "TWM": "台灣大哥大",
    "TSTAR": null,
    "APT": null
  },
  {
    "id": 284,
    "name": "冬瓜山步道",
    "manage": "新竹",
    "Place": "冬瓜山步道 路標指示",
    "county": "苗栗縣",
    "twd97_X": 246920.162,
    "twd97_Y": 2705903.561,
    "WGS84_East_longitude": 120.96962,
    "WGS84_north_latitude": 24.459412,
    "CHT": null,
    "FET": null,
    "TWM": null,
    "TSTAR": "台灣之星",
    "APT": null
  },
  {
    "id": 285,
    "name": "冬瓜山步道",
    "manage": "新竹",
    "Place": "冬瓜山步道 路標指示",
    "county": "苗栗縣",
    "twd97_X": 246435.581,
    "twd97_Y": 2705910.099,
    "WGS84_East_longitude": 120.96484,
    "WGS84_north_latitude": 24.45947,
    "CHT": null,
    "FET": null,
    "TWM": null,
    "TSTAR": "台灣之星",
    "APT": null
  },
  {
    "id": 286,
    "name": "冬瓜山步道",
    "manage": "新竹",
    "Place": "冬瓜山步道 路標指示",
    "county": "苗栗縣",
    "twd97_X": 246443.691,
    "twd97_Y": 2705911.205,
    "WGS84_East_longitude": 120.96492,
    "WGS84_north_latitude": 24.45948,
    "CHT": null,
    "FET": null,
    "TWM": null,
    "TSTAR": "台灣之星",
    "APT": null
  },
  {
    "id": 287,
    "name": "冬瓜山步道",
    "manage": "新竹",
    "Place": "冬瓜山步道",
    "county": "苗栗縣",
    "twd97_X": 246403.133,
    "twd97_Y": 2705882.862,
    "WGS84_East_longitude": 120.96452,
    "WGS84_north_latitude": 24.459224,
    "CHT": null,
    "FET": null,
    "TWM": null,
    "TSTAR": "台灣之星",
    "APT": null
  },
  {
    "id": 288,
    "name": "冬瓜山步道",
    "manage": "新竹",
    "Place": "冬瓜山步道",
    "county": "苗栗縣",
    "twd97_X": 246066.572,
    "twd97_Y": 2705924.485,
    "WGS84_East_longitude": 120.9612,
    "WGS84_north_latitude": 24.459599,
    "CHT": null,
    "FET": null,
    "TWM": null,
    "TSTAR": "台灣之星",
    "APT": null
  },
  {
    "id": 289,
    "name": "合歡東峰步道",
    "manage": "東勢",
    "Place": "登山口0K標示處",
    "county": "花蓮縣",
    "twd97_X": 279082.2614,
    "twd97_Y": 2670608.621,
    "WGS84_East_longitude": 121.286155,
    "WGS84_north_latitude": 24.140461,
    "CHT": "中華電信",
    "FET": null,
    "TWM": "台灣大哥大",
    "TSTAR": null,
    "APT": null
  },
  {
    "id": 290,
    "name": "合歡東峰步道",
    "manage": "東勢",
    "Place": "0.45k休憩平台",
    "county": "花蓮縣",
    "twd97_X": 278843.5633,
    "twd97_Y": 2670338.685,
    "WGS84_East_longitude": 121.283801,
    "WGS84_north_latitude": 24.138028,
    "CHT": "中華電信",
    "FET": null,
    "TWM": "台灣大哥大",
    "TSTAR": null,
    "APT": null
  },
  {
    "id": 291,
    "name": "合歡東峰步道",
    "manage": "東勢",
    "Place": "路標指示0.2k",
    "county": "花蓮縣",
    "twd97_X": 279022.1972,
    "twd97_Y": 2670460.977,
    "WGS84_East_longitude": 121.285561,
    "WGS84_north_latitude": 24.139129,
    "CHT": "中華電信",
    "FET": null,
    "TWM": "台灣大哥大",
    "TSTAR": null,
    "APT": null
  },
  {
    "id": 292,
    "name": "合歡東峰步道",
    "manage": "東勢",
    "Place": "路標指示0.1k",
    "county": "花蓮縣",
    "twd97_X": 279105.6207,
    "twd97_Y": 2670515.972,
    "WGS84_East_longitude": 121.286383,
    "WGS84_north_latitude": 24.139624,
    "CHT": "中華電信",
    "FET": null,
    "TWM": "台灣大哥大",
    "TSTAR": "台灣之星",
    "APT": null
  },
  {
    "id": 293,
    "name": "合歡尖山步道",
    "manage": "東勢",
    "Place": "路標指示0.1k",
    "county": "花蓮縣",
    "twd97_X": 278855.5894,
    "twd97_Y": 2670974.416,
    "WGS84_East_longitude": 121.283932,
    "WGS84_north_latitude": 24.143768,
    "CHT": "中華電信",
    "FET": null,
    "TWM": "台灣大哥大",
    "TSTAR": "台灣之星",
    "APT": null
  },
  {
    "id": 294,
    "name": "合歡尖山步道",
    "manage": "東勢",
    "Place": "0K標示處",
    "county": "花蓮縣",
    "twd97_X": 278922.4255,
    "twd97_Y": 2670845.194,
    "WGS84_East_longitude": 121.284587,
    "WGS84_north_latitude": 24.1426,
    "CHT": "中華電信",
    "FET": null,
    "TWM": "台灣大哥大",
    "TSTAR": "台灣之星",
    "APT": null
  },
  {
    "id": 295,
    "name": "德芙蘭步道",
    "manage": "東勢",
    "Place": "德芙蘭步道0K",
    "county": "臺中市",
    "twd97_X": 247712.2545,
    "twd97_Y": 2674793.785,
    "WGS84_East_longitude": 120.9774833,
    "WGS84_north_latitude": 24.17851667,
    "CHT": "中華電信",
    "FET": "遠傳電信",
    "TWM": "台灣大哥大",
    "TSTAR": "台灣之星",
    "APT": null
  },
  {
    "id": 296,
    "name": "德芙蘭步道",
    "manage": "東勢",
    "Place": "德芙蘭步道0.1K",
    "county": "臺中市",
    "twd97_X": 247705.5651,
    "twd97_Y": 2674893.465,
    "WGS84_East_longitude": 120.9774167,
    "WGS84_north_latitude": 24.17941667,
    "CHT": "中華電信",
    "FET": null,
    "TWM": "台灣大哥大",
    "TSTAR": null,
    "APT": null
  },
  {
    "id": 297,
    "name": "德芙蘭步道",
    "manage": "東勢",
    "Place": "德芙蘭0.65K",
    "county": "臺中市",
    "twd97_X": 247673.3884,
    "twd97_Y": 2675081.743,
    "WGS84_East_longitude": 120.9771,
    "WGS84_north_latitude": 24.1811166666667,
    "CHT": "中華電信",
    "FET": null,
    "TWM": "台灣大哥大",
    "TSTAR": "台灣之星",
    "APT": null
  },
  {
    "id": 298,
    "name": "德芙蘭步道",
    "manage": "東勢",
    "Place": "德芙蘭1.2K",
    "county": "臺中市",
    "twd97_X": 247324.5917,
    "twd97_Y": 2675020.887,
    "WGS84_East_longitude": 120.9736667,
    "WGS84_north_latitude": 24.18056667,
    "CHT": "中華電信",
    "FET": null,
    "TWM": "台灣大哥大",
    "TSTAR": "台灣之星",
    "APT": null
  },
  {
    "id": 299,
    "name": "德芙蘭步道",
    "manage": "東勢",
    "Place": "德芙蘭1.7K",
    "county": "臺中市",
    "twd97_X": 246995.987,
    "twd97_Y": 2674884.294,
    "WGS84_East_longitude": 120.9704333,
    "WGS84_north_latitude": 24.17933333,
    "CHT": "中華電信",
    "FET": null,
    "TWM": "台灣大哥大",
    "TSTAR": "台灣之星",
    "APT": null
  },
  {
    "id": 300,
    "name": "德芙蘭步道",
    "manage": "東勢",
    "Place": "德芙蘭2.5K",
    "county": "臺中市",
    "twd97_X": 247136.5383,
    "twd97_Y": 2674559.433,
    "WGS84_East_longitude": 120.9718167,
    "WGS84_north_latitude": 24.1764,
    "CHT": "中華電信",
    "FET": null,
    "TWM": "台灣大哥大",
    "TSTAR": "台灣之星",
    "APT": null
  },
  {
    "id": 301,
    "name": "德芙蘭步道",
    "manage": "東勢",
    "Place": "德芙蘭2.8K",
    "county": "臺中市",
    "twd97_X": 247537.0932,
    "twd97_Y": 2674783.964,
    "WGS84_East_longitude": 120.975758793507,
    "WGS84_north_latitude": 24.1784275571831,
    "CHT": "中華電信",
    "FET": null,
    "TWM": "台灣大哥大",
    "TSTAR": "台灣之星",
    "APT": null
  },